# 
# Header Description:
# 
# Version: v3.10.3 (24097-osmdroid), Manufacturer: OnePlus, Model: PHB110, GNSS HW Year: 2018, Platform: 13, API Level: 33 
# 
# Raw GNSS measurements format:
#   Raw,utcTimeMillis,TimeNanos,LeapSecond,TimeUncertaintyNanos,FullBiasNanos,BiasNanos,BiasUncertaintyNanos,DriftNanosPerSecond,DriftUncertaintyNanosPerSecond,HardwareClockDiscontinuityCount,Svid,TimeOffsetNanos,State,ReceivedSvTimeNanos,ReceivedSvTimeUncertaintyNanos,Cn0DbHz,PseudorangeRateMetersPerSecond,PseudorangeRateUncertaintyMetersPerSecond,AccumulatedDeltaRangeState,AccumulatedDeltaRangeMeters,AccumulatedDeltaRangeUncertaintyMeters,CarrierFrequencyHz,CarrierCycles,CarrierPhase,CarrierPhaseUncertainty,MultipathIndicator,SnrInDb,ConstellationType,AgcDb,BasebandCn0DbHz,FullInterSignalBiasNanos,FullInterSignalBiasUncertaintyNanos,SatelliteInterSignalBiasNanos,SatelliteInterSignalBiasUncertaintyNanos,CodeType,ChipsetElapsedRealtimeNanos
# 
# Location fix format:
#   Fix,Provider,LatitudeDegrees,LongitudeDegrees,AltitudeMeters,SpeedMps,AccuracyMeters,BearingDegrees,UnixTimeMillis,SpeedAccuracyMps,BearingAccuracyDegrees,elapsedRealtimeNanos,VerticalAccuracyMeters,MockLocation
# 
# Navigation message format:
#   Nav,Svid,Type,Status,MessageId,Sub-messageId,Data(Bytes)
# 
# NMEA format (for [NMEA sentence] format see https://en.wikipedia.org/wiki/NMEA_0183):
#   NMEA,[NMEA sentence],(UTC)TimeInMs
# 
# GnssAntennaInfo format (https://developer.android.com/reference/android/location/GnssAntennaInfo):
#   GnssAntennaInfo,CarrierFrequencyMHz,PhaseCenterOffsetXOffsetMm,PhaseCenterOffsetXOffsetUncertaintyMm,PhaseCenterOffsetYOffsetMm,PhaseCenterOffsetYOffsetUncertaintyMm,PhaseCenterOffsetZOffsetMm,PhaseCenterOffsetZOffsetUncertaintyMm,PhaseCenterVariationCorrectionsArray,PhaseCenterVariationCorrectionUncertaintiesArray,PhaseCenterVariationCorrectionsDeltaPhi,PhaseCenterVariationCorrectionsDeltaTheta,SignalGainCorrectionsArray,SignalGainCorrectionUncertaintiesArray,SignalGainCorrectionsDeltaPhi,SignalGainCorrectionsDeltaTheta
# 
# GnssStatus format (https://developer.android.com/reference/android/location/GnssStatus):
#   Status,UnixTimeMillis,SignalCount,SignalIndex,ConstellationType,Svid,CarrierFrequencyHz,Cn0DbHz,AzimuthDegrees,ElevationDegrees,UsedInFix,HasAlmanacData,HasEphemerisData,BasebandCn0DbHz
# Orientation sensor format (https://developer.android.com/reference/android/hardware/SensorEvent#values):
#   OrientationDeg,utcTimeMillis,elapsedRealtimeNanos,yawDeg,rollDeg,pitchDeg
Raw,170577460,122207895000000,18,0.0,-1384848948525089711,-0.33828163146972656,1452.7436578646302,-25.47605733966164,25.738652029320924,17,11,0.0,16399,583956346786316,14,33.8,-105.24658203125,0.6148766875267029,16,0.0,0.0,1575420030,,,,0,0.0,1,-56.34,30.199999999999996,0.0,0.0,,,C,170577460751744
Raw,170577460,122207895000000,18,0.0,-1384848948525089711,-0.33828163146972656,1452.7436578646302,-25.47605733966164,25.738652029320924,17,12,0.0,16399,583956343913127,12,36.1,-303.19403076171875,0.04649757221341133,16,0.0,0.0,1575420030,,,,0,0.0,1,-56.34,32.5,0.0,0.0,,,C,170577460840703
Raw,170577460,122207895000000,18,0.0,-1384848948525089711,-0.33828163146972656,1452.7436578646302,-25.47605733966164,25.738652029320924,17,10,0.0,49359,76338342008420,16,33.2,-142.73577880859375,3.431455373764038,16,0.0,0.0,1598062460,,,,0,0.0,3,-56.96,29.200000000000003,3846.3212890625,28.030458450317383,,,C,170577460872265
Raw,170577460,122207895000000,18,0.0,-1384848948525089711,-0.33828163146972656,1452.7436578646302,-25.47605733966164,25.738652029320924,17,20,0.0,49359,76338341391114,21,30.5,-343.9455261230469,2.89040470123291,16,0.0,0.0,1603124990,,,,0,0.0,3,-56.96,26.5,3846.3212890625,28.030458450317383,,,C,170577460900234
Raw,170577460,122207895000000,18,0.0,-1384848948525089711,-0.33828163146972656,1452.7436578646302,-25.47605733966164,25.738652029320924,17,60,0.0,16399,583942295296839,31,27.9,-4.292082786560059,3.837599992752075,16,0.0,0.0,1561097980,,,,0,0.0,5,-59.43,23.599999999999998,-1546.4639892578125,28.374595642089844,,,I,170577460926796
Raw,170577460,122207895000000,18,0.0,-1384848948525089711,-0.33828163146972656,1452.7436578646302,-25.47605733966164,25.738652029320924,17,45,0.0,16399,583942332180008,9,39.7,36.56926345825195,0.030857902020215988,16,0.0,0.0,1561097980,,,,0,0.0,5,-59.43,35.400000000000006,-1546.4639892578125,28.374595642089844,,,I,170577460952838
Raw,170577460,122207895000000,18,0.0,-1384848948525089711,-0.33828163146972656,1452.7436578646302,-25.47605733966164,25.738652029320924,17,38,0.0,16399,583942299028515,53,24.1,104.16222381591797,1.0850000381469727,16,0.0,0.0,1561097980,,,,0,0.0,5,-59.43,19.8,-1546.4639892578125,28.374595642089844,,,I,170577460988776
Raw,170577461,122207895000000,18,0.0,-1384848948525089711,-0.33828163146972656,1452.7436578646302,-25.47605733966164,25.738652029320924,17,36,0.0,16399,583942336087522,17,33.1,320.93853759765625,0.035439275205135345,16,0.0,0.0,1561097980,,,,0,0.0,5,-59.43,28.8,-1546.4639892578125,28.374595642089844,,,I,170577461020911
Raw,170577461,122207895000000,18,0.0,-1384848948525089711,-0.33828163146972656,1452.7436578646302,-25.47605733966164,25.738652029320924,17,29,0.0,16399,583942337663030,11,37.6,-400.6934509277344,0.024759791791439056,16,0.0,0.0,1561097980,,,,0,0.0,5,-59.43,33.300000000000004,-1546.4639892578125,28.374595642089844,,,I,170577461052994
Raw,170577461,122207895000000,18,0.0,-1384848948525089711,-0.33828163146972656,1452.7436578646302,-25.47605733966164,25.738652029320924,17,13,0.0,23567,583956329899298,13,35.7,-181.92735290527344,0.06539195775985718,16,0.0,0.0,1575420030,,,,0,0.0,6,-60.17,31.400000000000002,-1478.046875,23.756284713745117,,,C,170577461079296
Raw,170577461,122207895000000,18,0.0,-1384848948525089711,-0.33828163146972656,1452.7436578646302,-25.47605733966164,25.738652029320924,17,15,0.0,23567,583956337589017,31,27.3,-11.346787452697754,3.2181429862976074,16,0.0,0.0,1575420030,,,,0,0.0,6,-60.17,23.0,-1478.046875,23.756284713745117,,,C,170577461113151
Raw,170577461,122207895000000,18,0.0,-1384848948525089711,-0.33828163146972656,1452.7436578646302,-25.47605733966164,25.738652029320924,17,27,0.0,23567,583956336610092,12,36.3,-22.475954055786133,0.03299757093191147,16,0.0,0.0,1575420030,,,,0,0.0,6,-60.17,31.999999999999996,-1478.046875,23.756284713745117,,,C,170577461138099
Raw,170577461,122207895000000,18,0.0,-1384848948525089711,-0.33828163146972656,1452.7436578646302,-25.47605733966164,25.738652029320924,17,11,0.0,81935,583956346786287,7,29.7,-105.41014862060547,0.09900851547718048,16,0.0,0.0,1176450050,,,,0,0.0,1,-37.01,24.799999999999997,-11.441569328308105,4.690916061401367,,,Q,170577461168515
Raw,170577461,122207895000000,18,0.0,-1384848948525089711,-0.33828163146972656,1452.7436578646302,-25.47605733966164,25.738652029320924,17,13,0.0,81935,583956329899185,2,41.0,-181.90110778808594,0.05210970342159271,16,0.0,0.0,1176450050,,,,0,0.0,6,-37.01,35.7,-1342.9967041015625,2911.009765625,,,Q,170577461196380
Raw,170577461,122207895000000,18,0.0,-1384848948525089711,-0.33828163146972656,1452.7436578646302,-25.47605733966164,25.738652029320924,17,27,0.0,81935,583956336609972,6,31.9,-22.50564956665039,0.8455688953399658,16,0.0,0.0,1176450050,,,,0,0.0,6,-37.01,26.599999999999998,-1342.9967041015625,2911.009765625,,,Q,170577461222474
Raw,170577461,122207895000000,18,0.0,-1384848948525089711,-0.33828163146972656,1452.7436578646302,-25.47605733966164,25.738652029320924,17,29,0.0,16399,583942337663021,9,26.4,-400.751220703125,1.5608402490615845,16,0.0,0.0,1176450050,,,,0,0.0,5,-37.01,21.9,-1503.8572998046875,2912.369384765625,,,Q,170577461246849
Raw,170577461,122207895000000,18,0.0,-1384848948525089711,-0.33828163146972656,1452.7436578646302,-25.47605733966164,25.738652029320924,17,36,0.0,16399,583942336087452,2,40.0,320.87371826171875,0.092609703540802,16,0.0,0.0,1176450050,,,,0,0.0,5,-37.01,35.5,-1503.8572998046875,2912.369384765625,,,Q,170577461271171
Raw,170577461,122207895000000,18,0.0,-1384848948525089711,-0.33828163146972656,1452.7436578646302,-25.47605733966164,25.738652029320924,17,45,0.0,16399,583942332179999,3,37.6,36.51057815551758,0.01946994662284851,16,0.0,0.0,1176450050,,,,0,0.0,5,-37.01,33.1,-1503.8572998046875,2912.369384765625,,,Q,170577461295182
Raw,170578469,122208895000000,18,0.0,-1384848948525089807,-0.04098939895629883,322.3814128432423,-25.984703329878432,19.569599806408576,17,6,0.0,16399,583957347980462,31,27.1,109.59963989257812,0.8179999589920044,16,0.0,0.0,1575420030,,,,0,0.0,1,-56.22,23.5,0.0,0.0,,,C,170578469301171
Raw,170578469,122208895000000,18,0.0,-1384848948525089807,-0.04098939895629883,322.3814128432423,-25.984703329878432,19.569599806408576,17,11,0.0,16399,583957346786799,40,24.6,-103.34849548339844,0.8644999861717224,16,0.0,0.0,1575420030,,,,0,0.0,1,-56.22,21.0,0.0,0.0,,,C,170578469362421
Raw,170578469,122208895000000,18,0.0,-1384848948525089807,-0.04098939895629883,322.3814128432423,-25.984703329878432,19.569599806408576,17,12,0.0,16399,583957343914153,14,34.2,-301.0479736328125,0.6193766593933105,16,0.0,0.0,1575420030,,,,0,0.0,1,-56.22,30.6,0.0,0.0,,,C,170578469391744
Raw,170578469,122208895000000,18,0.0,-1384848948525089807,-0.04098939895629883,322.3814128432423,-25.984703329878432,19.569599806408576,17,10,0.0,49359,76339342008871,16,33.3,-140.5267333984375,0.054701127111911774,16,0.0,0.0,1598062460,,,,0,0.0,3,-56.91,29.299999999999997,3846.3212890625,28.030458450317383,,,C,170578469410494
Raw,170578469,122208895000000,18,0.0,-1384848948525089807,-0.04098939895629883,322.3814128432423,-25.984703329878432,19.569599806408576,17,9,0.0,49359,76339346385067,53,23.8,293.9918212890625,1.6154999732971191,16,0.0,0.0,1600875010,,,,0,0.0,3,-56.91,19.8,3846.3212890625,28.030458450317383,,,C,170578469428307
Raw,170578469,122208895000000,18,0.0,-1384848948525089807,-0.04098939895629883,322.3814128432423,-25.984703329878432,19.569599806408576,17,20,0.0,49359,76339341392407,46,24.2,-342.8176574707031,0.871999979019165,16,0.0,0.0,1603124990,,,,0,0.0,3,-56.91,20.2,3846.3212890625,28.030458450317383,,,C,170578469443202
Raw,170578469,122208895000000,18,0.0,-1384848948525089807,-0.04098939895629883,322.3814128432423,-25.984703329878432,19.569599806408576,17,45,0.0,16399,583943332179883,10,38.5,38.6794548034668,0.03145322576165199,16,0.0,0.0,1561097980,,,,0,0.0,5,-59.37,34.2,-1546.4639892578125,28.374595642089844,,,I,170578469458515
Raw,170578469,122208895000000,18,0.0,-1384848948525089807,-0.04098939895629883,322.3814128432423,-25.984703329878432,19.569599806408576,17,41,0.0,16399,583943331084945,80,20.9,558.9597778320312,2.11299991607666,16,0.0,0.0,1561097980,,,,0,0.0,5,-59.37,16.599999999999998,-1546.4639892578125,28.374595642089844,,,I,170578469475025
Raw,170578469,122208895000000,18,0.0,-1384848948525089807,-0.04098939895629883,322.3814128432423,-25.984703329878432,19.569599806408576,17,36,0.0,16399,583943336086466,14,34.7,322.95635986328125,0.0290827713906765,16,0.0,0.0,1561097980,,,,0,0.0,5,-59.37,30.400000000000002,-1546.4639892578125,28.374595642089844,,,I,170578469488827
Raw,170578469,122208895000000,18,0.0,-1384848948525089807,-0.04098939895629883,322.3814128432423,-25.984703329878432,19.569599806408576,17,29,0.0,16399,583943337664370,13,35.8,-398.6824645996094,0.026468943804502487,16,0.0,0.0,1561097980,,,,0,0.0,5,-59.37,31.499999999999996,-1546.4639892578125,28.374595642089844,,,I,170578469502525
Raw,170578469,122208895000000,18,0.0,-1384848948525089807,-0.04098939895629883,322.3814128432423,-25.984703329878432,19.569599806408576,17,13,0.0,16399,583943297697750,31,27.3,70.22884368896484,0.8330000042915344,16,0.0,0.0,1561097980,,,,0,0.0,5,-59.37,23.0,-1546.4639892578125,28.374595642089844,,,I,170578469516640
Raw,170578469,122208895000000,18,0.0,-1384848948525089807,-0.04098939895629883,322.3814128432423,-25.984703329878432,19.569599806408576,17,5,0.0,16399,583943289406812,31,28.0,-18.65663719177246,2.92710018157959,16,0.0,0.0,1561097980,,,,0,0.0,5,-59.37,23.7,-1546.4639892578125,28.374595642089844,,,I,170578469529921
Raw,170578469,122208895000000,18,0.0,-1384848948525089807,-0.04098939895629883,322.3814128432423,-25.984703329878432,19.569599806408576,17,13,0.0,23567,583957329899896,14,34.7,-179.8262481689453,0.06651468575000763,16,0.0,0.0,1575420030,,,,0,0.0,6,-60.02,30.400000000000002,-1478.046875,23.756284713745117,,,C,170578469544192
Raw,170578469,122208895000000,18,0.0,-1384848948525089807,-0.04098939895629883,322.3814128432423,-25.984703329878432,19.569599806408576,17,15,0.0,23567,583957337589065,21,30.3,-9.010604858398438,4.633009910583496,16,0.0,0.0,1575420030,,,,0,0.0,6,-60.02,26.0,-1478.046875,23.756284713745117,,,C,170578469558671
Raw,170578469,122208895000000,18,0.0,-1384848948525089807,-0.04098939895629883,322.3814128432423,-25.984703329878432,19.569599806408576,17,27,0.0,23567,583957336610146,16,34.1,-20.379867553710938,0.03630868345499039,16,0.0,0.0,1575420030,,,,0,0.0,6,-60.02,29.8,-1478.046875,23.756284713745117,,,C,170578469572734
Raw,170578469,122208895000000,18,0.0,-1384848948525089807,-0.04098939895629883,322.3814128432423,-25.984703329878432,19.569599806408576,17,11,0.0,81935,583957346786641,8,26.9,-103.39179229736328,0.8251410126686096,16,0.0,0.0,1176450050,,,,0,0.0,1,-36.47,22.0,-11.441569328308105,4.690916061401367,,,Q,170578469586640
Raw,170578469,122208895000000,18,0.0,-1384848948525089807,-0.04098939895629883,322.3814128432423,-25.984703329878432,19.569599806408576,17,13,0.0,81935,583957329899789,4,35.1,-179.81130981445312,0.05947423353791237,16,0.0,0.0,1176450050,,,,0,0.0,6,-36.47,29.8,-1342.9307861328125,651.4483642578125,,,Q,170578469600598
Raw,170578469,122208895000000,18,0.0,-1384848948525089807,-0.04098939895629883,322.3814128432423,-25.984703329878432,19.569599806408576,17,27,0.0,81935,583957336610047,10,25.7,-20.400495529174805,3.9371681213378906,16,0.0,0.0,1176450050,,,,0,0.0,6,-36.47,20.4,-1342.9307861328125,651.4483642578125,,,Q,170578469616223
Raw,170578469,122208895000000,18,0.0,-1384848948525089807,-0.04098939895629883,322.3814128432423,-25.984703329878432,19.569599806408576,17,29,0.0,16399,583943337664351,5,31.9,-398.83673095703125,0.10654531419277191,16,0.0,0.0,1176450050,,,,0,0.0,5,-36.47,27.4,-1503.94873046875,652.9249267578125,,,Q,170578469629400
Raw,170578469,122208895000000,18,0.0,-1384848948525089807,-0.04098939895629883,322.3814128432423,-25.984703329878432,19.569599806408576,17,36,0.0,16399,583943336086374,6,30.7,322.9328308105469,0.11108473688364029,16,0.0,0.0,1176450050,,,,0,0.0,5,-36.47,26.2,-1503.94873046875,652.9249267578125,,,Q,170578469643150
Raw,170578469,122208895000000,18,0.0,-1384848948525089807,-0.04098939895629883,322.3814128432423,-25.984703329878432,19.569599806408576,17,45,0.0,16399,583943332179873,5,32.5,38.51179504394531,0.09611479192972183,16,0.0,0.0,1176450050,,,,0,0.0,5,-36.47,28.0,-1503.94873046875,652.9249267578125,,,Q,170578469657213
Raw,170578469,122208895000000,18,0.0,-1384848948525089807,-0.04098939895629883,322.3814128432423,-25.984703329878432,19.569599806408576,17,29,0.0,16399,583943337664357,5,34.6,-398.5700988769531,0.6029999852180481,16,0.0,0.0,1575420030,,,,0,0.0,5,-60.02,27.6,-1539.11767578125,652.7423095703125,,,P,170578469671848
Raw,170578469,122208895000000,18,0.0,-1384848948525089807,-0.04098939895629883,322.3814128432423,-25.984703329878432,19.569599806408576,17,36,0.0,16399,583943336086425,4,36.4,322.9473876953125,0.5245000123977661,16,0.0,0.0,1575420030,,,,0,0.0,5,-60.02,29.4,-1539.11767578125,652.7423095703125,,,P,170578469723723
Raw,170578469,122208895000000,18,0.0,-1384848948525089807,-0.04098939895629883,322.3814128432423,-25.984703329878432,19.569599806408576,17,38,0.0,16399,583943299028108,11,26.0,106.17435455322266,1.0199999809265137,16,0.0,0.0,1575420030,,,,0,0.0,5,-60.02,19.0,-1539.11767578125,652.7423095703125,,,P,170578469738515
Raw,170578469,122208895000000,18,0.0,-1384848948525089807,-0.04098939895629883,322.3814128432423,-25.984703329878432,19.569599806408576,17,45,0.0,16399,583943332179859,2,41.6,38.857967376708984,0.40049999952316284,16,0.0,0.0,1575420030,,,,0,0.0,5,-60.02,34.6,-1539.11767578125,652.7423095703125,,,P,170578469753202
Raw,170579452,122209895000000,18,0.0,-1384848948525089816,-0.9949650764465332,284.8559815902263,-21.940860265492287,16.867412714659984,17,6,0.0,16399,583958347980165,40,25.0,110.2846908569336,0.8029999732971191,16,0.0,0.0,1575420030,,,,0,0.0,1,-56.1,21.4,0.0,0.0,,,C,170579452629400
Raw,170579453,122209895000000,18,0.0,-1384848948525089816,-0.9949650764465332,284.8559815902263,-21.940860265492287,16.867412714659984,17,11,0.0,16399,583958346786947,19,30.7,-103.09159851074219,0.5444999933242798,16,0.0,0.0,1575420030,,,,0,0.0,1,-56.1,27.099999999999998,0.0,0.0,,,C,170579453193619
Raw,170579453,122209895000000,18,0.0,-1384848948525089816,-0.9949650764465332,284.8559815902263,-21.940860265492287,16.867412714659984,17,12,0.0,16399,583958343915109,16,32.6,-299.7103576660156,1.7660483121871948,16,0.0,0.0,1575420030,,,,0,0.0,1,-56.1,29.0,0.0,0.0,,,C,170579453275181
Raw,170579453,122209895000000,18,0.0,-1384848948525089816,-0.9949650764465332,284.8559815902263,-21.940860265492287,16.867412714659984,17,10,0.0,49359,76340342009312,16,33.1,-139.462646484375,0.6174934506416321,16,0.0,0.0,1598062460,,,,0,0.0,3,-57.02,29.1,3846.3212890625,28.030458450317383,,,C,170579453337994
Raw,170579453,122209895000000,18,0.0,-1384848948525089816,-0.9949650764465332,284.8559815902263,-21.940860265492287,16.867412714659984,17,9,0.0,49359,76340346384192,27,28.7,295.0686340332031,0.6345000267028809,16,0.0,0.0,1600875010,,,,0,0.0,3,-57.02,24.7,3846.3212890625,28.030458450317383,,,C,170579453403931
Raw,170579453,122209895000000,18,0.0,-1384848948525089816,-0.9949650764465332,284.8559815902263,-21.940860265492287,16.867412714659984,17,20,0.0,49359,76340341393434,35,26.0,-340.9382629394531,0.7519999742507935,16,0.0,0.0,1603124990,,,,0,0.0,3,-57.02,22.0,3846.3212890625,28.030458450317383,,,C,170579453465962
Raw,170579453,122209895000000,18,0.0,-1384848948525089816,-0.9949650764465332,284.8559815902263,-21.940860265492287,16.867412714659984,17,60,0.0,16399,583944295296950,35,27.1,-17.389177322387695,4.60260009765625,16,0.0,0.0,1561097980,,,,0,0.0,5,-59.35,22.8,-1546.4639892578125,28.374595642089844,,,I,170579453531327
Raw,170579453,122209895000000,18,0.0,-1384848948525089816,-0.9949650764465332,284.8559815902263,-21.940860265492287,16.867412714659984,17,45,0.0,16399,583944332179748,12,36.3,39.75179672241211,0.03306635841727257,16,0.0,0.0,1561097980,,,,0,0.0,5,-59.35,31.999999999999996,-1546.4639892578125,28.374595642089844,,,I,170579453595337
Raw,170579454,122209895000000,18,0.0,-1384848948525089816,-0.9949650764465332,284.8559815902263,-21.940860265492287,16.867412714659984,17,38,0.0,16399,583944299027776,80,21.0,107.61893463134766,2.0950000286102295,16,0.0,0.0,1561097980,,,,0,0.0,5,-59.35,16.7,-1546.4639892578125,28.374595642089844,,,I,170579454129452
Raw,170579454,122209895000000,18,0.0,-1384848948525089816,-0.9949650764465332,284.8559815902263,-21.940860265492287,16.867412714659984,17,36,0.0,16399,583944336085360,27,29.2,324.2586669921875,0.5795000195503235,16,0.0,0.0,1561097980,,,,0,0.0,5,-59.35,24.9,-1546.4639892578125,28.374595642089844,,,I,170579454250858
Raw,170579454,122209895000000,18,0.0,-1384848948525089816,-0.9949650764465332,284.8559815902263,-21.940860265492287,16.867412714659984,17,29,0.0,16399,583944337665710,19,31.8,-397.7162170410156,1.1961815357208252,16,0.0,0.0,1561097980,,,,0,0.0,5,-59.35,27.5,-1546.4639892578125,28.374595642089844,,,I,170579454322837
Raw,170579454,122209895000000,18,0.0,-1384848948525089816,-0.9949650764465332,284.8559815902263,-21.940860265492287,16.867412714659984,17,13,0.0,16399,583944297697543,40,25.8,70.4784927368164,0.7879999876022339,16,0.0,0.0,1561097980,,,,0,0.0,5,-59.35,21.5,-1546.4639892578125,28.374595642089844,,,I,170579454384921
Raw,170579454,122209895000000,18,0.0,-1384848948525089816,-0.9949650764465332,284.8559815902263,-21.940860265492287,16.867412714659984,17,10,0.0,16399,583944300556989,61,22.3,-31.235225677490234,1.5215001106262207,16,0.0,0.0,1561097980,,,,0,0.0,5,-59.35,18.0,-1546.4639892578125,28.374595642089844,,,I,170579454449348
Raw,170579454,122209895000000,18,0.0,-1384848948525089816,-0.9949650764465332,284.8559815902263,-21.940860265492287,16.867412714659984,17,5,0.0,16399,583944289406814,24,29.7,-6.356507778167725,2.877200126647949,16,0.0,0.0,1561097980,,,,0,0.0,5,-59.35,25.4,-1546.4639892578125,28.374595642089844,,,I,170579454510337
Raw,170579454,122209895000000,18,0.0,-1384848948525089816,-0.9949650764465332,284.8559815902263,-21.940860265492287,16.867412714659984,17,13,0.0,23567,583958329900496,10,38.8,-178.64772033691406,0.06289910525083542,16,0.0,0.0,1575420030,,,,0,0.0,6,-59.88,34.5,-1478.046875,23.756284713745117,,,C,170579454574139
Raw,170579454,122209895000000,18,0.0,-1384848948525089816,-0.9949650764465332,284.8559815902263,-21.940860265492287,16.867412714659984,17,15,0.0,23567,583958337589056,31,27.9,-7.855411529541016,3.0981428623199463,16,0.0,0.0,1575420030,,,,0,0.0,6,-59.88,23.599999999999998,-1478.046875,23.756284713745117,,,C,170579454645077
Raw,170579454,122209895000000,18,0.0,-1384848948525089816,-0.9949650764465332,284.8559815902263,-21.940860265492287,16.867412714659984,17,27,0.0,23567,583958336610202,17,32.9,-19.17172622680664,0.03790714964270592,16,0.0,0.0,1575420030,,,,0,0.0,6,-59.88,28.599999999999998,-1478.046875,23.756284713745117,,,C,170579454713202
Raw,170579454,122209895000000,18,0.0,-1384848948525089816,-0.9949650764465332,284.8559815902263,-21.940860265492287,16.867412714659984,17,11,0.0,81935,583958346786982,12,23.5,-102.2242660522461,0.9404999613761902,16,0.0,0.0,1176450050,,,,0,0.0,1,-36.74,18.6,-11.441569328308105,4.690916061401367,,,Q,170579454780233
Raw,170579454,122209895000000,18,0.0,-1384848948525089816,-0.9949650764465332,284.8559815902263,-21.940860265492287,16.867412714659984,17,13,0.0,81935,583958329900388,6,31.6,-178.6444091796875,0.070584736764431,16,0.0,0.0,1176450050,,,,0,0.0,6,-36.74,26.3,-1342.8968505859375,576.5858154296875,,,Q,170579454847733
Raw,170579454,122209895000000,18,0.0,-1384848948525089816,-0.9949650764465332,284.8559815902263,-21.940860265492287,16.867412714659984,17,29,0.0,16399,583944337665678,6,30.6,-397.6227722167969,0.11258473992347717,16,0.0,0.0,1176450050,,,,0,0.0,5,-36.74,26.1,-1503.999755859375,578.0803833007812,,,Q,170579454910546
Raw,170579454,122209895000000,18,0.0,-1384848948525089816,-0.9949650764465332,284.8559815902263,-21.940860265492287,16.867412714659984,17,36,0.0,16399,583944336085298,4,34.0,324.1875305175781,0.09997423738241196,16,0.0,0.0,1176450050,,,,0,0.0,5,-36.74,29.5,-1503.999755859375,578.0803833007812,,,Q,170579454979087
Raw,170579455,122209895000000,18,0.0,-1384848948525089816,-0.9949650764465332,284.8559815902263,-21.940860265492287,16.867412714659984,17,45,0.0,16399,583944332179739,5,33.1,39.834129333496094,0.09611479192972183,16,0.0,0.0,1176450050,,,,0,0.0,5,-36.74,28.6,-1503.999755859375,578.0803833007812,,,Q,170579455045025
Raw,170579455,122209895000000,18,0.0,-1384848948525089816,-0.9949650764465332,284.8559815902263,-21.940860265492287,16.867412714659984,17,29,0.0,16399,583944337665697,6,33.1,-397.5202331542969,0.1061054915189743,16,0.0,0.0,1575420030,,,,0,0.0,5,-59.88,26.1,-1539.167724609375,577.8978271484375,,,P,170579455113775
Raw,170579455,122209895000000,18,0.0,-1384848948525089816,-0.9949650764465332,284.8559815902263,-21.940860265492287,16.867412714659984,17,36,0.0,16399,583944336085351,8,30.7,324.18310546875,2.382230520248413,16,0.0,0.0,1575420030,,,,0,0.0,5,-59.88,23.7,-1539.167724609375,577.8978271484375,,,P,170579455184556
Raw,170579455,122209895000000,18,0.0,-1384848948525089816,-0.9949650764465332,284.8559815902263,-21.940860265492287,16.867412714659984,17,45,0.0,16399,583944332179727,3,40.8,39.810054779052734,0.0861983448266983,16,0.0,0.0,1575420030,,,,0,0.0,5,-59.88,33.8,-1539.167724609375,577.8978271484375,,,P,170579455247160
Raw,170580466,122210895000000,18,0.0,-1384848948525089837,-0.23819255828857422,229.0637930855155,-18.931068886468616,15.714244174203609,17,4,0.0,16399,583959336321008,70,21.0,306.0683288574219,2.4054999351501465,16,0.0,0.0,1575420030,,,,0,0.0,1,-55.96,17.4,0.0,0.0,,,C,170580466180025
Raw,170580466,122210895000000,18,0.0,-1384848948525089837,-0.23819255828857422,229.0637930855155,-18.931068886468616,15.714244174203609,17,6,0.0,16399,583959347979689,40,25.3,111.46451568603516,0.8029999732971191,16,0.0,0.0,1575420030,,,,0,0.0,1,-55.96,21.7,0.0,0.0,,,C,170580466267212
Raw,170580466,122210895000000,18,0.0,-1384848948525089837,-0.23819255828857422,229.0637930855155,-18.931068886468616,15.714244174203609,17,11,0.0,16399,583959346787322,17,31.6,-101.9759292602539,0.05029437690973282,16,0.0,0.0,1575420030,,,,0,0.0,1,-55.96,28.0,0.0,0.0,,,C,170580466290962
Raw,170580466,122210895000000,18,0.0,-1384848948525089837,-0.23819255828857422,229.0637930855155,-18.931068886468616,15.714244174203609,17,12,0.0,16399,583959343916154,24,28.9,-300.0594482421875,4.682051181793213,16,0.0,0.0,1575420030,,,,0,0.0,1,-55.96,25.299999999999997,0.0,0.0,,,C,170580466428306
Raw,170580466,122210895000000,18,0.0,-1384848948525089837,-0.23819255828857422,229.0637930855155,-18.931068886468616,15.714244174203609,17,10,0.0,49359,76341342009810,17,32.0,-139.0860595703125,0.056070588529109955,16,0.0,0.0,1598062460,,,,0,0.0,3,-56.92,28.0,3846.3212890625,28.030458450317383,,,C,170580466462212
Raw,170580466,122210895000000,18,0.0,-1384848948525089837,-0.23819255828857422,229.0637930855155,-18.931068886468616,15.714244174203609,17,9,0.0,49359,76341346383177,24,29.8,295.4407043457031,0.10929478704929352,16,0.0,0.0,1600875010,,,,0,0.0,3,-56.92,25.8,3846.3212890625,28.030458450317383,,,C,170580466485702
Raw,170580466,122210895000000,18,0.0,-1384848948525089837,-0.23819255828857422,229.0637930855155,-18.931068886468616,15.714244174203609,17,20,0.0,49359,76341341394415,53,23.8,-341.11590576171875,0.9419999718666077,16,0.0,0.0,1603124990,,,,0,0.0,3,-56.92,19.8,3846.3212890625,28.030458450317383,,,C,170580466507837
Raw,170580466,122210895000000,18,0.0,-1384848948525089837,-0.23819255828857422,229.0637930855155,-18.931068886468616,15.714244174203609,17,45,0.0,16399,583945332179611,11,37.3,40.04881286621094,0.03225979208946228,16,0.0,0.0,1561097980,,,,0,0.0,5,-59.21,33.0,-1546.4639892578125,28.374595642089844,,,I,170580466527108
Raw,170580466,122210895000000,18,0.0,-1384848948525089837,-0.23819255828857422,229.0637930855155,-18.931068886468616,15.714244174203609,17,36,0.0,16399,583945336084308,24,30.2,324.2488708496094,0.09620057046413422,16,0.0,0.0,1561097980,,,,0,0.0,5,-59.21,25.9,-1546.4639892578125,28.374595642089844,,,I,170580466548150
Raw,170580466,122210895000000,18,0.0,-1384848948525089837,-0.23819255828857422,229.0637930855155,-18.931068886468616,15.714244174203609,17,29,0.0,16399,583945337667016,17,33.0,-397.5015869140625,0.03393927961587906,16,0.0,0.0,1561097980,,,,0,0.0,5,-59.21,28.7,-1546.4639892578125,28.374595642089844,,,I,170580466567837
Raw,170580466,122210895000000,18,0.0,-1384848948525089837,-0.23819255828857422,229.0637930855155,-18.931068886468616,15.714244174203609,17,13,0.0,16399,583945297697317,31,27.5,70.96820068359375,0.6679999828338623,16,0.0,0.0,1561097980,,,,0,0.0,5,-59.21,23.2,-1546.4639892578125,28.374595642089844,,,I,170580466590337
Raw,170580466,122210895000000,18,0.0,-1384848948525089837,-0.23819255828857422,229.0637930855155,-18.931068886468616,15.714244174203609,17,5,0.0,16399,583945289406817,24,29.6,-21.71966552734375,2.877200126647949,16,0.0,0.0,1561097980,,,,0,0.0,5,-59.21,25.3,-1546.4639892578125,28.374595642089844,,,I,170580466612368
Raw,170580466,122210895000000,18,0.0,-1384848948525089837,-0.23819255828857422,229.0637930855155,-18.931068886468616,15.714244174203609,17,13,0.0,23567,583959329901093,11,37.6,-178.68270874023438,0.06369834393262863,16,0.0,0.0,1575420030,,,,0,0.0,6,-59.74,33.300000000000004,-1478.046875,23.756284713745117,,,C,170580466633410
Raw,170580466,122210895000000,18,0.0,-1384848948525089837,-0.23819255828857422,229.0637930855155,-18.931068886468616,15.714244174203609,17,15,0.0,23567,583959337589083,31,27.5,-7.868804931640625,1.5691745281219482,16,0.0,0.0,1575420030,,,,0,0.0,6,-59.74,23.2,-1478.046875,23.756284713745117,,,C,170580466653775
Raw,170580466,122210895000000,18,0.0,-1384848948525089837,-0.23819255828857422,229.0637930855155,-18.931068886468616,15.714244174203609,17,21,0.0,23567,583959324872214,80,21.0,-396.0296936035156,2.435500144958496,16,0.0,0.0,1575420030,,,,0,0.0,6,-59.74,16.7,-1478.046875,23.756284713745117,,,C,170580466673462
Raw,170580466,122210895000000,18,0.0,-1384848948525089837,-0.23819255828857422,229.0637930855155,-18.931068886468616,15.714244174203609,17,27,0.0,23567,583959336610285,17,32.9,-19.03644371032715,0.03790714964270592,16,0.0,0.0,1575420030,,,,0,0.0,6,-59.74,28.599999999999998,-1478.046875,23.756284713745117,,,C,170580466692420
Raw,170580466,122210895000000,18,0.0,-1384848948525089837,-0.23819255828857422,229.0637930855155,-18.931068886468616,15.714244174203609,17,11,0.0,81935,583959346787329,16,21.4,-102.51732635498047,1.1004999876022339,16,0.0,0.0,1176450050,,,,0,0.0,1,-36.37,16.5,-11.441569328308105,4.690916061401367,,,Q,170580466712472
Raw,170580466,122210895000000,18,0.0,-1384848948525089837,-0.23819255828857422,229.0637930855155,-18.931068886468616,15.714244174203609,17,13,0.0,81935,583959329900985,5,32.6,-178.66842651367188,0.06454531103372574,16,0.0,0.0,1176450050,,,,0,0.0,6,-36.37,27.3,-1342.8812255859375,465.4166259765625,,,Q,170580466735545
Raw,170580466,122210895000000,18,0.0,-1384848948525089837,-0.23819255828857422,229.0637930855155,-18.931068886468616,15.714244174203609,17,27,0.0,81935,583959336610177,23,19.1,-19.214035034179688,2.015500068664551,16,0.0,0.0,1176450050,,,,0,0.0,6,-36.37,13.8,-1342.8812255859375,465.4166259765625,,,Q,170580466755910
Raw,170580466,122210895000000,18,0.0,-1384848948525089837,-0.23819255828857422,229.0637930855155,-18.931068886468616,15.714244174203609,17,29,0.0,16399,583945337667000,5,32.4,-397.6936950683594,0.10654531419277191,16,0.0,0.0,1176450050,,,,0,0.0,5,-36.37,27.9,-1504.08935546875,466.9527282714844,,,Q,170580466774868
Raw,170580466,122210895000000,18,0.0,-1384848948525089837,-0.23819255828857422,229.0637930855155,-18.931068886468616,15.714244174203609,17,36,0.0,16399,583945336084220,5,32.7,324.0564880371094,0.10211478918790817,16,0.0,0.0,1176450050,,,,0,0.0,5,-36.37,28.200000000000003,-1504.08935546875,466.9527282714844,,,Q,170580466795754
Raw,170580466,122210895000000,18,0.0,-1384848948525089837,-0.23819255828857422,229.0637930855155,-18.931068886468616,15.714244174203609,17,45,0.0,16399,583945332179610,5,32.3,39.802459716796875,0.09904531389474869,16,0.0,0.0,1176450050,,,,0,0.0,5,-36.37,27.799999999999997,-1504.08935546875,466.9527282714844,,,Q,170580466816222
Raw,170580466,122210895000000,18,0.0,-1384848948525089837,-0.23819255828857422,229.0637930855155,-18.931068886468616,15.714244174203609,17,29,0.0,16399,583945337666982,7,31.0,-397.69732666015625,0.13069143891334534,16,0.0,0.0,1575420030,,,,0,0.0,5,-59.74,24.0,-1539.2529296875,466.770263671875,,,P,170580466836691
Raw,170580466,122210895000000,18,0.0,-1384848948525089837,-0.23819255828857422,229.0637930855155,-18.931068886468616,15.714244174203609,17,36,0.0,16399,583945336084272,7,31.8,324.00555419921875,2.3806700706481934,16,0.0,0.0,1575420030,,,,0,0.0,5,-59.74,24.8,-1539.2529296875,466.770263671875,,,P,170580466860650
Raw,170580466,122210895000000,18,0.0,-1384848948525089837,-0.23819255828857422,229.0637930855155,-18.931068886468616,15.714244174203609,17,38,0.0,16399,583945299027434,20,21.9,107.28756713867188,2.1100001335144043,16,0.0,0.0,1575420030,,,,0,0.0,5,-59.74,14.899999999999999,-1539.2529296875,466.770263671875,,,P,170580466880337
Raw,170580466,122210895000000,18,0.0,-1384848948525089837,-0.23819255828857422,229.0637930855155,-18.931068886468616,15.714244174203609,17,45,0.0,16399,583945332179596,3,39.7,39.824317932128906,0.08699757605791092,16,0.0,0.0,1575420030,,,,0,0.0,5,-59.74,32.7,-1539.2529296875,466.770263671875,,,P,170580466899972
Raw,170581458,122211895000000,18,0.0,-1384848948525089852,-0.7503013610839844,211.2713409587741,-17.946003192602767,13.530981255574957,17,6,0.0,16399,583960347979308,35,25.8,112.5491943359375,0.8029999732971191,16,0.0,0.0,1575420030,,,,0,0.0,1,-55.93,22.2,0.0,0.0,,,C,170581458813774
Raw,170581458,122211895000000,18,0.0,-1384848948525089852,-0.7503013610839844,211.2713409587741,-17.946003192602767,13.530981255574957,17,11,0.0,16399,583960346787682,24,29.5,-100.72787475585938,0.6813843250274658,16,0.0,0.0,1575420030,,,,0,0.0,1,-55.93,25.9,0.0,0.0,,,C,170581458885753
Raw,170581458,122211895000000,18,0.0,-1384848948525089852,-0.7503013610839844,211.2713409587741,-17.946003192602767,13.530981255574957,17,12,0.0,16399,583960343917130,21,29.8,-297.8053894042969,2.9374959468841553,16,0.0,0.0,1575420030,,,,0,0.0,1,-55.93,26.2,0.0,0.0,,,C,170581458905857
Raw,170581459,122211895000000,18,0.0,-1384848948525089852,-0.7503013610839844,211.2713409587741,-17.946003192602767,13.530981255574957,17,196,0.0,16399,583960294655445,92,18.7,128.2579345703125,3.4325003623962402,16,0.0,0.0,1575420030,,,,0,0.0,4,-55.93,15.1,0.0,0.0,,,C,170581459027055
Raw,170581459,122211895000000,18,0.0,-1384848948525089852,-0.7503013610839844,211.2713409587741,-17.946003192602767,13.530981255574957,17,10,0.0,49359,76342342010218,17,32.3,-137.73097229003906,1.1816554069519043,16,0.0,0.0,1598062460,,,,0,0.0,3,-56.91,28.299999999999997,3846.3212890625,28.030458450317383,,,C,170581459047160
Raw,170581459,122211895000000,18,0.0,-1384848948525089852,-0.7503013610839844,211.2713409587741,-17.946003192602767,13.530981255574957,17,9,0.0,49359,76342346382197,17,32.5,296.7962341308594,0.05004323646426201,16,0.0,0.0,1600875010,,,,0,0.0,3,-56.91,28.5,3846.3212890625,28.030458450317383,,,C,170581459066691
Raw,170581459,122211895000000,18,0.0,-1384848948525089852,-0.7503013610839844,211.2713409587741,-17.946003192602767,13.530981255574957,17,20,0.0,49359,76342341395720,61,22.7,-339.09625244140625,1.0220000743865967,16,0.0,0.0,1603124990,,,,0,0.0,3,-56.91,18.7,3846.3212890625,28.030458450317383,,,C,170581459096639
Raw,170581459,122211895000000,18,0.0,-1384848948525089852,-0.7503013610839844,211.2713409587741,-17.946003192602767,13.530981255574957,17,45,0.0,16399,583946332179485,12,36.9,41.3267936706543,0.03306635841727257,16,0.0,0.0,1561097980,,,,0,0.0,5,-59.21,32.6,-1546.4639892578125,28.374595642089844,,,I,170581459111691
Raw,170581459,122211895000000,18,0.0,-1384848948525089852,-0.7503013610839844,211.2713409587741,-17.946003192602767,13.530981255574957,17,41,0.0,16399,583946331079442,80,21.0,561.7923583984375,2.5329999923706055,16,0.0,0.0,1561097980,,,,0,0.0,5,-59.21,16.7,-1546.4639892578125,28.374595642089844,,,I,170581459129555
Raw,170581459,122211895000000,18,0.0,-1384848948525089852,-0.7503013610839844,211.2713409587741,-17.946003192602767,13.530981255574957,17,38,0.0,16399,583946299027034,80,20.9,107.79176330566406,1.8849999904632568,16,0.0,0.0,1561097980,,,,0,0.0,5,-59.21,16.599999999999998,-1546.4639892578125,28.374595642089844,,,I,170581459144295
Raw,170581459,122211895000000,18,0.0,-1384848948525089852,-0.7503013610839844,211.2713409587741,-17.946003192602767,13.530981255574957,17,36,0.0,16399,583946336083209,24,29.5,325.50738525390625,0.6723190546035767,16,0.0,0.0,1561097980,,,,0,0.0,5,-59.21,25.2,-1546.4639892578125,28.374595642089844,,,I,170581459158930
Raw,170581459,122211895000000,18,0.0,-1384848948525089852,-0.7503013610839844,211.2713409587741,-17.946003192602767,13.530981255574957,17,29,0.0,16399,583946337668340,16,33.8,-396.2421569824219,0.03253738954663277,16,0.0,0.0,1561097980,,,,0,0.0,5,-59.21,29.499999999999996,-1546.4639892578125,28.374595642089844,,,I,170581459172680
Raw,170581459,122211895000000,18,0.0,-1384848948525089852,-0.7503013610839844,211.2713409587741,-17.946003192602767,13.530981255574957,17,13,0.0,16399,583946297697061,35,26.9,71.7939682006836,0.7279999852180481,16,0.0,0.0,1561097980,,,,0,0.0,5,-59.21,22.599999999999998,-1546.4639892578125,28.374595642089844,,,I,170581459188826
Raw,170581459,122211895000000,18,0.0,-1384848948525089852,-0.7503013610839844,211.2713409587741,-17.946003192602767,13.530981255574957,17,8,0.0,16399,583946298721390,106,18.7,95.72208404541016,3.4085001945495605,16,0.0,0.0,1561097980,,,,0,0.0,5,-59.21,14.399999999999999,-1546.4639892578125,28.374595642089844,,,I,170581459202576
Raw,170581459,122211895000000,18,0.0,-1384848948525089852,-0.7503013610839844,211.2713409587741,-17.946003192602767,13.530981255574957,17,5,0.0,16399,583946289406881,24,29.5,-6.5293426513671875,2.877200126647949,16,0.0,0.0,1561097980,,,,0,0.0,5,-59.21,25.2,-1546.4639892578125,28.374595642089844,,,I,170581459216535
Raw,170581459,122211895000000,18,0.0,-1384848948525089852,-0.7503013610839844,211.2713409587741,-17.946003192602767,13.530981255574957,17,13,0.0,23567,583960329901690,10,38.5,-177.2908172607422,0.06289910525083542,16,0.0,0.0,1575420030,,,,0,0.0,6,-59.71,34.2,-1478.046875,23.756284713745117,,,C,170581459232472
Raw,170581459,122211895000000,18,0.0,-1384848948525089852,-0.7503013610839844,211.2713409587741,-17.946003192602767,13.530981255574957,17,15,0.0,23567,583960337589123,27,28.6,-6.482840538024902,0.03864597529172897,16,0.0,0.0,1575420030,,,,0,0.0,6,-59.71,24.3,-1478.046875,23.756284713745117,,,C,170581459247107
Raw,170581459,122211895000000,18,0.0,-1384848948525089852,-0.7503013610839844,211.2713409587741,-17.946003192602767,13.530981255574957,17,21,0.0,23567,583960324873553,70,21.8,-394.0411071777344,1.1154999732971191,16,0.0,0.0,1575420030,,,,0,0.0,6,-59.71,17.5,-1478.046875,23.756284713745117,,,C,170581459261587
Raw,170581459,122211895000000,18,0.0,-1384848948525089852,-0.7503013610839844,211.2713409587741,-17.946003192602767,13.530981255574957,17,27,0.0,23567,583960336610359,16,33.7,-17.586931228637695,0.03630868345499039,16,0.0,0.0,1575420030,,,,0,0.0,6,-59.71,29.400000000000002,-1478.046875,23.756284713745117,,,C,170581459275701
Raw,170581459,122211895000000,18,0.0,-1384848948525089852,-0.7503013610839844,211.2713409587741,-17.946003192602767,13.530981255574957,17,13,0.0,81935,583960329901577,5,33.2,-177.304443359375,0.8290294408798218,16,0.0,0.0,1176450050,,,,0,0.0,6,-36.37,27.900000000000002,-1342.8499755859375,429.99114990234375,,,Q,170581459291951
Raw,170581459,122211895000000,18,0.0,-1384848948525089852,-0.7503013610839844,211.2713409587741,-17.946003192602767,13.530981255574957,17,29,0.0,16399,583946337668324,5,33.0,-396.23095703125,0.10361479222774506,16,0.0,0.0,1176450050,,,,0,0.0,5,-36.37,28.5,-1504.1314697265625,431.54254150390625,,,Q,170581459306014
Raw,170581459,122211895000000,18,0.0,-1384848948525089852,-0.7503013610839844,211.2713409587741,-17.946003192602767,13.530981255574957,17,36,0.0,16399,583946336083133,4,34.9,325.5326843261719,0.0982414036989212,16,0.0,0.0,1176450050,,,,0,0.0,5,-36.37,30.4,-1504.1314697265625,431.54254150390625,,,Q,170581459320545
Raw,170581459,122211895000000,18,0.0,-1384848948525089852,-0.7503013610839844,211.2713409587741,-17.946003192602767,13.530981255574957,17,45,0.0,16399,583946332179474,4,34.3,41.38628005981445,0.09397424012422562,16,0.0,0.0,1176450050,,,,0,0.0,5,-36.37,29.799999999999997,-1504.1314697265625,431.54254150390625,,,Q,170581459350545
Raw,170581459,122211895000000,18,0.0,-1384848948525089852,-0.7503013610839844,211.2713409587741,-17.946003192602767,13.530981255574957,17,29,0.0,16399,583946337668317,6,33.0,-395.95977783203125,1.247867465019226,16,0.0,0.0,1575420030,,,,0,0.0,5,-59.71,26.0,-1539.2894287109375,431.36016845703125,,,P,170581459366430
Raw,170581459,122211895000000,18,0.0,-1384848948525089852,-0.7503013610839844,211.2713409587741,-17.946003192602767,13.530981255574957,17,36,0.0,16399,583946336083179,6,32.9,325.55413818359375,0.09589003771543503,16,0.0,0.0,1575420030,,,,0,0.0,5,-59.71,25.9,-1539.2894287109375,431.36016845703125,,,P,170581459379660
Raw,170581459,122211895000000,18,0.0,-1384848948525089852,-0.7503013610839844,211.2713409587741,-17.946003192602767,13.530981255574957,17,45,0.0,16399,583946332179446,3,40.6,41.36771774291992,0.0861983448266983,16,0.0,0.0,1575420030,,,,0,0.0,5,-59.71,33.6,-1539.2894287109375,431.36016845703125,,,P,170581459393618
Raw,170582461,122212895000000,18,0.0,-1384848948525089859,-0.8358035087585449,196.12692994996905,-14.265979491063664,12.803265387839588,17,6,0.0,16399,583961347978842,35,26.2,112.12103271484375,0.7429999709129333,16,0.0,0.0,1575420030,,,,0,0.0,1,-55.93,22.599999999999998,0.0,0.0,,,C,170582461283617
Raw,170582461,122212895000000,18,0.0,-1384848948525089859,-0.8358035087585449,196.12692994996905,-14.265979491063664,12.803265387839588,17,11,0.0,16399,583961346788046,21,29.7,-100.72645568847656,0.07859104871749878,16,0.0,0.0,1575420030,,,,0,0.0,1,-55.93,26.099999999999998,0.0,0.0,,,C,170582461343982
Raw,170582461,122212895000000,18,0.0,-1384848948525089859,-0.8358035087585449,196.12692994996905,-14.265979491063664,12.803265387839588,17,12,0.0,16399,583961343918086,24,28.7,-298.1848449707031,1.8276463747024536,16,0.0,0.0,1575420030,,,,0,0.0,1,-55.93,25.099999999999998,0.0,0.0,,,C,170582461375024
Raw,170582461,122212895000000,18,0.0,-1384848948525089859,-0.8358035087585449,196.12692994996905,-14.265979491063664,12.803265387839588,17,10,0.0,49359,76343342010687,19,31.2,-137.6162872314453,0.06584441661834717,16,0.0,0.0,1598062460,,,,0,0.0,3,-56.91,27.2,3846.3212890625,28.030458450317383,,,C,170582461495180
Raw,170582461,122212895000000,18,0.0,-1384848948525089859,-0.8358035087585449,196.12692994996905,-14.265979491063664,12.803265387839588,17,9,0.0,49359,76343346381175,16,33.6,296.84820556640625,0.048676181584596634,16,0.0,0.0,1600875010,,,,0,0.0,3,-56.91,29.6,3846.3212890625,28.030458450317383,,,C,170582461525805
Raw,170582461,122212895000000,18,0.0,-1384848948525089859,-0.8358035087585449,196.12692994996905,-14.265979491063664,12.803265387839588,17,60,0.0,16399,583947295297041,31,28.2,-12.415353775024414,4.397100448608398,16,0.0,0.0,1561097980,,,,0,0.0,5,-59.14,23.9,-1546.4639892578125,28.374595642089844,,,I,170582461546534
Raw,170582461,122212895000000,18,0.0,-1384848948525089859,-0.8358035087585449,196.12692994996905,-14.265979491063664,12.803265387839588,17,45,0.0,16399,583947332179352,13,35.8,41.41077423095703,0.03396894410252571,16,0.0,0.0,1561097980,,,,0,0.0,5,-59.14,31.499999999999996,-1546.4639892578125,28.374595642089844,,,I,170582461562836
Raw,170582461,122212895000000,18,0.0,-1384848948525089859,-0.8358035087585449,196.12692994996905,-14.265979491063664,12.803265387839588,17,36,0.0,16399,583947336082115,24,29.4,325.517333984375,0.6723190546035767,16,0.0,0.0,1561097980,,,,0,0.0,5,-59.14,25.099999999999998,-1546.4639892578125,28.374595642089844,,,I,170582461581170
Raw,170582461,122212895000000,18,0.0,-1384848948525089859,-0.8358035087585449,196.12692994996905,-14.265979491063664,12.803265387839588,17,29,0.0,16399,583947337669655,14,34.5,-396.2565002441406,0.027582772076129913,16,0.0,0.0,1561097980,,,,0,0.0,5,-59.14,30.2,-1546.4639892578125,28.374595642089844,,,I,170582461596795
Raw,170582461,122212895000000,18,0.0,-1384848948525089859,-0.8358035087585449,196.12692994996905,-14.265979491063664,12.803265387839588,17,13,0.0,16399,583947297696862,35,27.0,72.20684814453125,0.6679999828338623,16,0.0,0.0,1561097980,,,,0,0.0,5,-59.14,22.7,-1546.4639892578125,28.374595642089844,,,I,170582461612628
Raw,170582461,122212895000000,18,0.0,-1384848948525089859,-0.8358035087585449,196.12692994996905,-14.265979491063664,12.803265387839588,17,10,0.0,16399,583947300557340,70,21.3,-28.997962951660156,2.5164999961853027,16,0.0,0.0,1561097980,,,,0,0.0,5,-59.14,17.0,-1546.4639892578125,28.374595642089844,,,I,170582461628097
Raw,170582461,122212895000000,18,0.0,-1384848948525089859,-0.8358035087585449,196.12692994996905,-14.265979491063664,12.803265387839588,17,5,0.0,16399,583947289406901,27,28.6,-9.371526718139648,3.227100133895874,16,0.0,0.0,1561097980,,,,0,0.0,5,-59.14,24.3,-1546.4639892578125,28.374595642089844,,,I,170582461652888
Raw,170582461,122212895000000,18,0.0,-1384848948525089859,-0.8358035087585449,196.12692994996905,-14.265979491063664,12.803265387839588,17,13,0.0,23567,583961329902287,10,38.5,-177.3394012451172,0.06289910525083542,16,0.0,0.0,1575420030,,,,0,0.0,6,-59.71,34.2,-1478.046875,23.756284713745117,,,C,170582461669295
Raw,170582461,122212895000000,18,0.0,-1384848948525089859,-0.8358035087585449,196.12692994996905,-14.265979491063664,12.803265387839588,17,15,0.0,23567,583961337589127,27,28.9,-6.541332721710205,0.03864597529172897,16,0.0,0.0,1575420030,,,,0,0.0,6,-59.71,24.599999999999998,-1478.046875,23.756284713745117,,,C,170582461715232
Raw,170582461,122212895000000,18,0.0,-1384848948525089859,-0.8358035087585449,196.12692994996905,-14.265979491063664,12.803265387839588,17,21,0.0,23567,583961324874854,70,21.4,-393.70806884765625,1.1154999732971191,16,0.0,0.0,1575420030,,,,0,0.0,6,-59.71,17.099999999999998,-1478.046875,23.756284713745117,,,C,170582461739399
Raw,170582461,122212895000000,18,0.0,-1384848948525089859,-0.8358035087585449,196.12692994996905,-14.265979491063664,12.803265387839588,17,27,0.0,23567,583961336610428,16,33.6,-17.557268142700195,0.03630868345499039,16,0.0,0.0,1575420030,,,,0,0.0,6,-59.71,29.3,-1478.046875,23.756284713745117,,,C,170582461754555
Raw,170582461,122212895000000,18,0.0,-1384848948525089859,-0.8358035087585449,196.12692994996905,-14.265979491063664,12.803265387839588,17,11,0.0,81935,583961346788020,20,19.4,-100.6698226928711,2.060500144958496,16,0.0,0.0,1176450050,,,,0,0.0,1,-36.28,14.499999999999998,-11.441569328308105,4.690916061401367,,,Q,170582461769815
Raw,170582461,122212895000000,18,0.0,-1384848948525089859,-0.8358035087585449,196.12692994996905,-14.265979491063664,12.803265387839588,17,13,0.0,81935,583961329902175,6,31.9,-177.37020874023438,0.070584736764431,16,0.0,0.0,1176450050,,,,0,0.0,6,-36.28,26.599999999999998,-1342.8343505859375,399.8743591308594,,,Q,170582461784815
Raw,170582461,122212895000000,18,0.0,-1384848948525089859,-0.8358035087585449,196.12692994996905,-14.265979491063664,12.803265387839588,17,27,0.0,81935,583961336610293,20,19.9,-17.07347869873047,2.015500068664551,16,0.0,0.0,1176450050,,,,0,0.0,6,-36.28,14.599999999999998,-1342.8343505859375,399.8743591308594,,,Q,170582461799138
Raw,170582461,122212895000000,18,0.0,-1384848948525089859,-0.8358035087585449,196.12692994996905,-14.265979491063664,12.803265387839588,17,29,0.0,16399,583947337669647,5,33.1,-396.3104248046875,0.10361479222774506,16,0.0,0.0,1176450050,,,,0,0.0,5,-36.28,28.6,-1504.1962890625,401.4422912597656,,,Q,170582461815284
Raw,170582461,122212895000000,18,0.0,-1384848948525089859,-0.8358035087585449,196.12692994996905,-14.265979491063664,12.803265387839588,17,36,0.0,16399,583947336082051,4,35.2,325.5105895996094,0.0982414036989212,16,0.0,0.0,1176450050,,,,0,0.0,5,-36.28,30.700000000000003,-1504.1962890625,401.4422912597656,,,Q,170582461830649
Raw,170582461,122212895000000,18,0.0,-1384848948525089859,-0.8358035087585449,196.12692994996905,-14.265979491063664,12.803265387839588,17,38,0.0,16399,583947299026712,27,16.6,108.19998931884766,4.579999923706055,16,0.0,0.0,1176450050,,,,0,0.0,5,-36.28,12.100000000000001,-1504.1962890625,401.4422912597656,,,Q,170582461846899
Raw,170582461,122212895000000,18,0.0,-1384848948525089859,-0.8358035087585449,196.12692994996905,-14.265979491063664,12.803265387839588,17,45,0.0,16399,583947332179334,4,33.8,41.379112243652344,0.09397424012422562,16,0.0,0.0,1176450050,,,,0,0.0,5,-36.28,29.299999999999997,-1504.1962890625,401.4422912597656,,,Q,170582461861222
Raw,170582461,122212895000000,18,0.0,-1384848948525089859,-0.8358035087585449,196.12692994996905,-14.265979491063664,12.803265387839588,17,29,0.0,16399,583947337669618,6,32.7,-396.27740478515625,0.1153918206691742,16,0.0,0.0,1575420030,,,,0,0.0,5,-59.71,25.700000000000003,-1539.3482666015625,401.25994873046875,,,P,170582461876742
Raw,170582461,122212895000000,18,0.0,-1384848948525089859,-0.8358035087585449,196.12692994996905,-14.265979491063664,12.803265387839588,17,36,0.0,16399,583947336082092,7,31.5,325.4971618652344,0.09714597463607788,16,0.0,0.0,1575420030,,,,0,0.0,5,-59.71,24.5,-1539.3482666015625,401.25994873046875,,,P,170582461891326
Raw,170582461,122212895000000,18,0.0,-1384848948525089859,-0.8358035087585449,196.12692994996905,-14.265979491063664,12.803265387839588,17,38,0.0,16399,583947299026793,18,22.9,108.76234436035156,2.0199999809265137,16,0.0,0.0,1575420030,,,,0,0.0,5,-59.71,15.899999999999999,-1539.3482666015625,401.25994873046875,,,P,170582461906534
Raw,170582461,122212895000000,18,0.0,-1384848948525089859,-0.8358035087585449,196.12692994996905,-14.265979491063664,12.803265387839588,17,45,0.0,16399,583947332179309,3,40.1,41.38304138183594,0.0861983448266983,16,0.0,0.0,1575420030,,,,0,0.0,5,-59.71,33.1,-1539.3482666015625,401.25994873046875,,,P,170582461922680
Raw,170583453,122213895000000,18,0.0,-1384848948525089882,-0.06833600997924805,186.64415983948857,-14.435313429199697,11.74010888510583,17,4,0.0,16399,583962336317896,92,19.0,307.69537353515625,2.7204999923706055,16,0.0,0.0,1575420030,,,,0,0.0,1,-55.96,15.4,0.0,0.0,,,C,170583453781690
Raw,170583453,122213895000000,18,0.0,-1384848948525089882,-0.06833600997924805,186.64415983948857,-14.435313429199697,11.74010888510583,17,6,0.0,16399,583962347978450,40,25.3,112.76803588867188,0.8029999732971191,16,0.0,0.0,1575420030,,,,0,0.0,1,-55.96,21.7,0.0,0.0,,,C,170583453974711
Raw,170583454,122213895000000,18,0.0,-1384848948525089882,-0.06833600997924805,186.64415983948857,-14.435313429199697,11.74010888510583,17,11,0.0,16399,583962346788358,24,29.1,-100.25231170654297,0.6813843250274658,16,0.0,0.0,1575420030,,,,0,0.0,1,-55.96,25.5,0.0,0.0,,,C,170583454001586
Raw,170583454,122213895000000,18,0.0,-1384848948525089882,-0.06833600997924805,186.64415983948857,-14.435313429199697,11.74010888510583,17,12,0.0,16399,583962343919121,27,28.0,-297.3719177246094,0.6389999985694885,16,0.0,0.0,1575420030,,,,0,0.0,1,-55.96,24.4,0.0,0.0,,,C,170583454017003
Raw,170583454,122213895000000,18,0.0,-1384848948525089882,-0.06833600997924805,186.64415983948857,-14.435313429199697,11.74010888510583,17,10,0.0,49359,76344342011089,19,31.2,-137.07443237304688,0.06584441661834717,16,0.0,0.0,1598062460,,,,0,0.0,3,-56.93,27.2,3846.3212890625,28.030458450317383,,,C,170583454034190
Raw,170583454,122213895000000,18,0.0,-1384848948525089882,-0.06833600997924805,186.64415983948857,-14.435313429199697,11.74010888510583,17,9,0.0,49359,76344346380190,17,32.9,297.4413757324219,0.05004323646426201,16,0.0,0.0,1600875010,,,,0,0.0,3,-56.93,28.9,3846.3212890625,28.030458450317383,,,C,170583454049659
Raw,170583454,122213895000000,18,0.0,-1384848948525089882,-0.06833600997924805,186.64415983948857,-14.435313429199697,11.74010888510583,17,20,0.0,49359,76344341397800,80,20.8,-338.6474304199219,1.8580000400543213,16,0.0,0.0,1603124990,,,,0,0.0,3,-56.93,16.8,3846.3212890625,28.030458450317383,,,C,170583454064450
Raw,170583454,122213895000000,18,0.0,-1384848948525089882,-0.06833600997924805,186.64415983948857,-14.435313429199697,11.74010888510583,17,45,0.0,16399,583948332179225,12,36.4,41.96985626220703,0.03306635841727257,16,0.0,0.0,1561097980,,,,0,0.0,5,-59.07,32.1,-1546.4639892578125,28.374595642089844,,,I,170583454078096
Raw,170583454,122213895000000,18,0.0,-1384848948525089882,-0.06833600997924805,186.64415983948857,-14.435313429199697,11.74010888510583,17,38,0.0,16399,583948299026275,80,20.5,108.93440246582031,1.8849999904632568,16,0.0,0.0,1561097980,,,,0,0.0,5,-59.07,16.2,-1546.4639892578125,28.374595642089844,,,I,170583454096378
Raw,170583454,122213895000000,18,0.0,-1384848948525089882,-0.06833600997924805,186.64415983948857,-14.435313429199697,11.74010888510583,17,36,0.0,16399,583948336081019,24,29.5,326.03466796875,0.09620057046413422,16,0.0,0.0,1561097980,,,,0,0.0,5,-59.07,25.2,-1546.4639892578125,28.374595642089844,,,I,170583454111169
Raw,170583454,122213895000000,18,0.0,-1384848948525089882,-0.06833600997924805,186.64415983948857,-14.435313429199697,11.74010888510583,17,29,0.0,16399,583948337670973,14,34.9,-395.8114013671875,0.027582772076129913,16,0.0,0.0,1561097980,,,,0,0.0,5,-59.07,30.599999999999998,-1546.4639892578125,28.374595642089844,,,I,170583454126221
Raw,170583454,122213895000000,18,0.0,-1384848948525089882,-0.06833600997924805,186.64415983948857,-14.435313429199697,11.74010888510583,17,13,0.0,16399,583948297696586,40,26.0,72.07242584228516,0.7279999852180481,16,0.0,0.0,1561097980,,,,0,0.0,5,-59.07,21.7,-1546.4639892578125,28.374595642089844,,,I,170583454143148
Raw,170583454,122213895000000,18,0.0,-1384848948525089882,-0.06833600997924805,186.64415983948857,-14.435313429199697,11.74010888510583,17,5,0.0,16399,583948289406962,27,28.7,-7.182277202606201,3.227100133895874,16,0.0,0.0,1561097980,,,,0,0.0,5,-59.07,24.4,-1546.4639892578125,28.374595642089844,,,I,170583454157003
Raw,170583454,122213895000000,18,0.0,-1384848948525089882,-0.06833600997924805,186.64415983948857,-14.435313429199697,11.74010888510583,17,13,0.0,23567,583962329902879,11,38.0,-176.84852600097656,0.06369834393262863,16,0.0,0.0,1575420030,,,,0,0.0,6,-59.74,33.7,-1478.046875,23.756284713745117,,,C,170583454171950
Raw,170583454,122213895000000,18,0.0,-1384848948525089882,-0.06833600997924805,186.64415983948857,-14.435313429199697,11.74010888510583,17,15,0.0,23567,583962337589152,27,28.6,-6.096738815307617,0.03864597529172897,16,0.0,0.0,1575420030,,,,0,0.0,6,-59.74,24.3,-1478.046875,23.756284713745117,,,C,170583454236013
Raw,170583454,122213895000000,18,0.0,-1384848948525089882,-0.06833600997924805,186.64415983948857,-14.435313429199697,11.74010888510583,17,21,0.0,23567,583962324876200,61,22.7,-393.7366638183594,1.0355000495910645,16,0.0,0.0,1575420030,,,,0,0.0,6,-59.74,18.4,-1478.046875,23.756284713745117,,,C,170583454251013
Raw,170583454,122213895000000,18,0.0,-1384848948525089882,-0.06833600997924805,186.64415983948857,-14.435313429199697,11.74010888510583,17,27,0.0,23567,583962336610482,17,32.7,-17.019655227661133,0.03790714964270592,16,0.0,0.0,1575420030,,,,0,0.0,6,-59.74,28.400000000000002,-1478.046875,23.756284713745117,,,C,170583454264555
Raw,170583454,122213895000000,18,0.0,-1384848948525089882,-0.06833600997924805,186.64415983948857,-14.435313429199697,11.74010888510583,17,34,0.0,23567,583962333636357,139,16.6,169.10447692871094,5.237000465393066,16,0.0,0.0,1575420030,,,,0,0.0,6,-59.74,12.3,-1478.046875,23.756284713745117,,,C,170583454279346
Raw,170583454,122213895000000,18,0.0,-1384848948525089882,-0.06833600997924805,186.64415983948857,-14.435313429199697,11.74010888510583,17,11,0.0,81935,583962346788345,18,20.3,-100.35128784179688,1.190500020980835,16,0.0,0.0,1176450050,,,,0,0.0,1,-36.28,15.4,-11.441569328308105,4.690916061401367,,,Q,170583454294346
Raw,170583454,122213895000000,18,0.0,-1384848948525089882,-0.06833600997924805,186.64415983948857,-14.435313429199697,11.74010888510583,17,13,0.0,81935,583962329902761,6,31.8,-176.86549377441406,0.070584736764431,16,0.0,0.0,1176450050,,,,0,0.0,6,-36.28,26.5,-1342.8421630859375,381.02117919921875,,,Q,170583454308513
Raw,170583454,122213895000000,18,0.0,-1384848948525089882,-0.06833600997924805,186.64415983948857,-14.435313429199697,11.74010888510583,17,27,0.0,81935,583962336610362,18,21.1,-17.0097713470459,1.1154999732971191,16,0.0,0.0,1176450050,,,,0,0.0,6,-36.28,15.8,-1342.8421630859375,381.02117919921875,,,Q,170583454324294
Raw,170583454,122213895000000,18,0.0,-1384848948525089882,-0.06833600997924805,186.64415983948857,-14.435313429199697,11.74010888510583,17,29,0.0,16399,583948337670966,5,33.2,-395.8371276855469,0.10361479222774506,16,0.0,0.0,1176450050,,,,0,0.0,5,-36.28,28.700000000000003,-1504.2529296875,382.5998840332031,,,Q,170583454338200
Raw,170583454,122213895000000,18,0.0,-1384848948525089882,-0.06833600997924805,186.64415983948857,-14.435313429199697,11.74010888510583,17,36,0.0,16399,583948336080962,4,34.8,325.9870910644531,0.0982414036989212,16,0.0,0.0,1176450050,,,,0,0.0,5,-36.28,30.299999999999997,-1504.2529296875,382.5998840332031,,,Q,170583454353461
Raw,170583454,122213895000000,18,0.0,-1384848948525089882,-0.06833600997924805,186.64415983948857,-14.435313429199697,11.74010888510583,17,45,0.0,16399,583948332179194,4,34.5,41.91702651977539,0.09224140644073486,16,0.0,0.0,1176450050,,,,0,0.0,5,-36.28,30.0,-1504.2529296875,382.5998840332031,,,Q,170583454367940
Raw,170583454,122213895000000,18,0.0,-1384848948525089882,-0.06833600997924805,186.64415983948857,-14.435313429199697,11.74010888510583,17,29,0.0,16399,583948337670947,6,32.2,-395.8341979980469,0.1153918206691742,16,0.0,0.0,1575420030,,,,0,0.0,5,-59.74,25.200000000000003,-1539.398193359375,382.4176330566406,,,P,170583454382940
Raw,170583454,122213895000000,18,0.0,-1384848948525089882,-0.06833600997924805,186.64415983948857,-14.435313429199697,11.74010888510583,17,36,0.0,16399,583948336081007,6,32.9,325.9740905761719,0.09589003771543503,16,0.0,0.0,1575420030,,,,0,0.0,5,-59.74,25.9,-1539.398193359375,382.4176330566406,,,P,170583454399450
Raw,170583454,122213895000000,18,0.0,-1384848948525089882,-0.06833600997924805,186.64415983948857,-14.435313429199697,11.74010888510583,17,38,0.0,16399,583948299026404,12,25.6,109.00021362304688,1.0700000524520874,16,0.0,0.0,1575420030,,,,0,0.0,5,-59.74,18.6,-1539.398193359375,382.4176330566406,,,P,170583454414086
Raw,170583454,122213895000000,18,0.0,-1384848948525089882,-0.06833600997924805,186.64415983948857,-14.435313429199697,11.74010888510583,17,45,0.0,16399,583948332179170,2,41.0,41.91006088256836,0.08539910614490509,16,0.0,0.0,1575420030,,,,0,0.0,5,-59.74,34.0,-1539.398193359375,382.4176330566406,,,P,170583454450805
Raw,170584464,122214895000000,18,0.0,-1384848948525089893,-0.557131290435791,175.73291552253067,-12.913754263490887,11.496330491290598,17,6,0.0,16399,583963347978001,35,25.9,113.13909912109375,0.8029999732971191,16,0.0,0.0,1575420030,,,,0,0.0,1,-55.96,22.299999999999997,0.0,0.0,,,C,170584464760648
Raw,170584464,122214895000000,18,0.0,-1384848948525089893,-0.557131290435791,175.73291552253067,-12.913754263490887,11.496330491290598,17,11,0.0,16399,583963346788674,21,29.7,-100.0506362915039,0.07859104871749878,16,0.0,0.0,1575420030,,,,0,0.0,1,-55.96,26.099999999999998,0.0,0.0,,,C,170584464973877
Raw,170584465,122214895000000,18,0.0,-1384848948525089893,-0.557131290435791,175.73291552253067,-12.913754263490887,11.496330491290598,17,12,0.0,16399,583963343920102,19,30.8,-297.25128173828125,0.6355896592140198,16,0.0,0.0,1575420030,,,,0,0.0,1,-55.96,27.2,0.0,0.0,,,C,170584465003096
Raw,170584465,122214895000000,18,0.0,-1384848948525089893,-0.557131290435791,175.73291552253067,-12.913754263490887,11.496330491290598,17,10,0.0,49359,76345342011586,19,31.4,-136.72332763671875,0.06584441661834717,16,0.0,0.0,1598062460,,,,0,0.0,3,-56.91,27.4,3846.3212890625,28.030458450317383,,,C,170584465019033
Raw,170584465,122214895000000,18,0.0,-1384848948525089893,-0.557131290435791,175.73291552253067,-12.913754263490887,11.496330491290598,17,9,0.0,49359,76345346379247,17,32.7,297.71881103515625,0.05004323646426201,16,0.0,0.0,1600875010,,,,0,0.0,3,-56.91,28.700000000000003,3846.3212890625,28.030458450317383,,,C,170584465036950
Raw,170584465,122214895000000,18,0.0,-1384848948525089893,-0.557131290435791,175.73291552253067,-12.913754263490887,11.496330491290598,17,45,0.0,16399,583949332179073,12,37.1,42.16603469848633,0.03306635841727257,16,0.0,0.0,1561097980,,,,0,0.0,5,-59.07,32.800000000000004,-1546.4639892578125,28.374595642089844,,,I,170584465058200
Raw,170584465,122214895000000,18,0.0,-1384848948525089893,-0.557131290435791,175.73291552253067,-12.913754263490887,11.496330491290598,17,41,0.0,16399,583949331073778,70,21.3,563.4342651367188,2.5329999923706055,16,0.0,0.0,1561097980,,,,0,0.0,5,-59.07,17.0,-1546.4639892578125,28.374595642089844,,,I,170584465075492
