# 
# Header Description:
# 
# Version: v3.10.3 (24097-osmdroid), Manufacturer: OnePlus, Model: PHB110, GNSS HW Year: 2018, Platform: 13, API Level: 33 
# 
# Raw GNSS measurements format:
#   Raw,utcTimeMillis,TimeNanos,LeapSecond,TimeUncertaintyNanos,FullBiasNanos,BiasNanos,BiasUncertaintyNanos,DriftNanosPerSecond,DriftUncertaintyNanosPerSecond,HardwareClockDiscontinuityCount,Svid,TimeOffsetNanos,State,ReceivedSvTimeNanos,ReceivedSvTimeUncertaintyNanos,Cn0DbHz,PseudorangeRateMetersPerSecond,PseudorangeRateUncertaintyMetersPerSecond,AccumulatedDeltaRangeState,AccumulatedDeltaRangeMeters,AccumulatedDeltaRangeUncertaintyMeters,CarrierFrequencyHz,CarrierCycles,CarrierPhase,CarrierPhaseUncertainty,MultipathIndicator,SnrInDb,ConstellationType,AgcDb,BasebandCn0DbHz,FullInterSignalBiasNanos,FullInterSignalBiasUncertaintyNanos,SatelliteInterSignalBiasNanos,SatelliteInterSignalBiasUncertaintyNanos,CodeType,ChipsetElapsedRealtimeNanos
# 
# Location fix format:
#   Fix,Provider,LatitudeDegrees,LongitudeDegrees,AltitudeMeters,SpeedMps,AccuracyMeters,BearingDegrees,UnixTimeMillis,SpeedAccuracyMps,BearingAccuracyDegrees,elapsedRealtimeNanos,VerticalAccuracyMeters,MockLocation
# 
# Navigation message format:
#   Nav,Svid,Type,Status,MessageId,Sub-messageId,Data(Bytes)
# 
# NMEA format (for [NMEA sentence] format see https://en.wikipedia.org/wiki/NMEA_0183):
#   NMEA,[NMEA sentence],(UTC)TimeInMs
# 
# GnssAntennaInfo format (https://developer.android.com/reference/android/location/GnssAntennaInfo):
#   GnssAntennaInfo,CarrierFrequencyMHz,PhaseCenterOffsetXOffsetMm,PhaseCenterOffsetXOffsetUncertaintyMm,PhaseCenterOffsetYOffsetMm,PhaseCenterOffsetYOffsetUncertaintyMm,PhaseCenterOffsetZOffsetMm,PhaseCenterOffsetZOffsetUncertaintyMm,PhaseCenterVariationCorrectionsArray,PhaseCenterVariationCorrectionUncertaintiesArray,PhaseCenterVariationCorrectionsDeltaPhi,PhaseCenterVariationCorrectionsDeltaTheta,SignalGainCorrectionsArray,SignalGainCorrectionUncertaintiesArray,SignalGainCorrectionsDeltaPhi,SignalGainCorrectionsDeltaTheta
# 
# GnssStatus format (https://developer.android.com/reference/android/location/GnssStatus):
#   Status,UnixTimeMillis,SignalCount,SignalIndex,ConstellationType,Svid,CarrierFrequencyHz,Cn0DbHz,AzimuthDegrees,ElevationDegrees,UsedInFix,HasAlmanacData,HasEphemerisData,BasebandCn0DbHz
# Orientation sensor format (https://developer.android.com/reference/android/hardware/SensorEvent#values):
#   OrientationDeg,utcTimeMillis,elapsedRealtimeNanos,yawDeg,rollDeg,pitchDeg
Raw,153858487,104090470000000,18,0.0,-1384850346948301739,-0.30525779724121094,113.13037248328328,-10.52690077344292,11.072000752201536,12,2,0.0,16399,567237343872030,17,31.6,513.9407348632812,2.9091992378234863,16,0.0,0.0,1575420030,,,,0,0.0,1,-56.69,28.0,0.0,0.0,,,C,153858487761649
Raw,153858487,104090470000000,18,0.0,-1384850346948301739,-0.30525779724121094,113.13037248328328,-10.52690077344292,11.072000752201536,12,3,0.0,16399,567237341661260,31,27.3,-425.6298522949219,0.6919999718666077,16,0.0,0.0,1575420030,,,,0,0.0,1,-56.69,23.7,0.0,0.0,,,C,153858487856493
Raw,153858487,104090470000000,18,0.0,-1384850346948301739,-0.30525779724121094,113.13037248328328,-10.52690077344292,11.072000752201536,12,7,0.0,16399,567237348915221,31,27.5,319.75994873046875,0.6934999823570251,16,0.0,0.0,1575420030,,,,0,0.0,1,-56.69,23.9,0.0,0.0,,,C,153858487886649
Raw,153858487,104090470000000,18,0.0,-1384850346948301739,-0.30525779724121094,113.13037248328328,-10.52690077344292,11.072000752201536,12,8,0.0,16399,567237338346963,17,31.8,390.03485107421875,2.3158183097839355,16,0.0,0.0,1575420030,,,,0,0.0,1,-56.69,28.2,0.0,0.0,,,C,153858487911701
Raw,153858487,104090470000000,18,0.0,-1384850346948301739,-0.30525779724121094,113.13037248328328,-10.52690077344292,11.072000752201536,12,14,0.0,16399,567237345326999,46,23.6,-457.8465576171875,1.8389999866485596,16,0.0,0.0,1575420030,,,,0,0.0,1,-56.69,20.0,0.0,0.0,,,C,153858487936389
Raw,153858487,104090470000000,18,0.0,-1384850346948301739,-0.30525779724121094,113.13037248328328,-10.52690077344292,11.072000752201536,12,17,0.0,16399,567237343958067,24,29.1,-127.33001708984375,1.256765365600586,16,0.0,0.0,1575420030,,,,0,0.0,1,-56.69,25.5,0.0,0.0,,,C,153858487960243
Raw,153858487,104090470000000,18,0.0,-1384850346948301739,-0.30525779724121094,113.13037248328328,-10.52690077344292,11.072000752201536,12,19,0.0,16399,567237337904212,40,25.2,-340.78741455078125,0.7879999876022339,16,0.0,0.0,1575420030,,,,0,0.0,1,-56.69,21.599999999999998,0.0,0.0,,,C,153858487991545
Raw,153858488,104090470000000,18,0.0,-1384850346948301739,-0.30525779724121094,113.13037248328328,-10.52690077344292,11.072000752201536,12,21,0.0,16399,567237341864147,24,29.1,637.4446411132812,4.114170074462891,16,0.0,0.0,1575420030,,,,0,0.0,1,-56.69,25.5,0.0,0.0,,,C,153858488017170
Raw,153858488,104090470000000,18,0.0,-1384850346948301739,-0.30525779724121094,113.13037248328328,-10.52690077344292,11.072000752201536,12,22,0.0,16399,567237339554066,17,32.1,-457.2091064453125,0.6050000190734863,16,0.0,0.0,1575420030,,,,0,0.0,1,-56.69,28.5,0.0,0.0,,,C,153858488040764
Raw,153858488,104090470000000,18,0.0,-1384850346948301739,-0.30525779724121094,113.13037248328328,-10.52690077344292,11.072000752201536,12,30,0.0,16399,567237347884769,27,28.2,-23.61544418334961,0.6330000162124634,16,0.0,0.0,1575420030,,,,0,0.0,1,-56.69,24.599999999999998,0.0,0.0,,,C,153858488062482
Raw,153858488,104090470000000,18,0.0,-1384850346948301739,-0.30525779724121094,113.13037248328328,-10.52690077344292,11.072000752201536,12,194,0.0,16399,567237291064883,17,32.4,-223.04052734375,0.042794376611709595,16,0.0,0.0,1575420030,,,,0,0.0,4,-56.69,28.799999999999997,0.0,0.0,,,C,153858488086076
Raw,153858488,104090470000000,18,0.0,-1384850346948301739,-0.30525779724121094,113.13037248328328,-10.52690077344292,11.072000752201536,12,195,0.0,16399,567237288803884,61,22.0,152.3871612548828,1.0115000009536743,16,0.0,0.0,1575420030,,,,0,0.0,4,-56.69,18.4,0.0,0.0,,,C,153858488109722
Raw,153858488,104090470000000,18,0.0,-1384850346948301739,-0.30525779724121094,113.13037248328328,-10.52690077344292,11.072000752201536,12,14,0.0,49359,59619353919819,40,25.7,53.01504135131836,0.793999969959259,16,0.0,0.0,1598062460,,,,0,0.0,3,-56.81,21.7,3870.021240234375,23.54891014099121,,,C,153858488134878
Raw,153858488,104090470000000,18,0.0,-1384850346948301739,-0.30525779724121094,113.13037248328328,-10.52690077344292,11.072000752201536,12,18,0.0,49359,59619346522324,19,31.6,-431.4743347167969,2.869814395904541,16,0.0,0.0,1600312450,,,,0,0.0,3,-56.81,27.6,3870.021240234375,23.54891014099121,,,C,153858488169149
Raw,153858488,104090470000000,18,0.0,-1384850346948301739,-0.30525779724121094,113.13037248328328,-10.52690077344292,11.072000752201536,12,15,0.0,49359,59619348871119,27,28.2,-603.3089599609375,0.6315000057220459,16,0.0,0.0,1602000000,,,,0,0.0,3,-56.81,24.2,3870.021240234375,23.54891014099121,,,C,153858488226284
Raw,153858488,104090470000000,18,0.0,-1384850346948301739,-0.30525779724121094,113.13037248328328,-10.52690077344292,11.072000752201536,12,24,0.0,49359,59619345755066,16,33.8,627.3541259765625,1.1721866130828857,16,0.0,0.0,1603124990,,,,0,0.0,3,-56.81,29.799999999999997,3870.021240234375,23.54891014099121,,,C,153858488254618
Raw,153858488,104090470000000,18,0.0,-1384850346948301739,-0.30525779724121094,113.13037248328328,-10.52690077344292,11.072000752201536,12,17,0.0,49359,59619352713612,53,23.6,129.4942626953125,0.9254999756813049,16,0.0,0.0,1604249980,,,,0,0.0,3,-56.81,19.6,3870.021240234375,23.54891014099121,,,C,153858488286128
Raw,153858488,104090470000000,18,0.0,-1384850346948301739,-0.30525779724121094,113.13037248328328,-10.52690077344292,11.072000752201536,12,60,0.0,16399,567223293175116,27,29.2,-6.721382141113281,2.577200174331665,16,0.0,0.0,1561097980,,,,0,0.0,5,-59.32,24.9,-1499.5609130859375,25.46723175048828,,,I,153858488312899
Raw,153858488,104090470000000,18,0.0,-1384850346948301739,-0.30525779724121094,113.13037248328328,-10.52690077344292,11.072000752201536,12,59,0.0,16399,567223294468539,14,34.9,-4.86820125579834,1.4881000518798828,16,0.0,0.0,1561097980,,,,0,0.0,5,-59.32,30.599999999999998,-1499.5609130859375,25.46723175048828,,,I,153858488340920
Raw,153858492,104090470000000,18,0.0,-1384850346948301739,-0.30525779724121094,113.13037248328328,-10.52690077344292,11.072000752201536,12,46,0.0,16399,567223337707342,27,28.3,-504.814208984375,1.8270000219345093,16,0.0,0.0,1561097980,,,,0,0.0,5,-59.32,24.0,-1499.5609130859375,25.46723175048828,,,I,153858492237795
Raw,153858492,104090470000000,18,0.0,-1384850346948301739,-0.30525779724121094,113.13037248328328,-10.52690077344292,11.072000752201536,12,43,0.0,16399,567223328539055,19,31.3,476.04278564453125,0.057444535195827484,16,0.0,0.0,1561097980,,,,0,0.0,5,-59.32,27.0,-1499.5609130859375,25.46723175048828,,,I,153858492315399
Raw,153858492,104090470000000,18,0.0,-1384850346948301739,-0.30525779724121094,113.13037248328328,-10.52690077344292,11.072000752201536,12,40,0.0,16399,567223294488691,61,23.2,-19.213552474975586,0.9975000023841858,16,0.0,0.0,1561097980,,,,0,0.0,5,-59.32,18.9,-1499.5609130859375,25.46723175048828,,,I,153858492383055
Raw,153858492,104090470000000,18,0.0,-1384850346948301739,-0.30525779724121094,113.13037248328328,-10.52690077344292,11.072000752201536,12,38,0.0,16399,567223292386643,10,39.1,-315.51025390625,0.03145322576165199,16,0.0,0.0,1561097980,,,,0,0.0,5,-59.32,34.800000000000004,-1499.5609130859375,25.46723175048828,,,I,153858492418420
Raw,153858492,104090470000000,18,0.0,-1384850346948301739,-0.30525779724121094,113.13037248328328,-10.52690077344292,11.072000752201536,12,30,0.0,16399,567223332517401,8,41.2,-394.06085205078125,0.03024337626993656,16,0.0,0.0,1561097980,,,,0,0.0,5,-59.32,36.900000000000006,-1499.5609130859375,25.46723175048828,,,I,153858492451232
Raw,153858492,104090470000000,18,0.0,-1384850346948301739,-0.30525779724121094,113.13037248328328,-10.52690077344292,11.072000752201536,12,28,0.0,16399,567223343007335,46,24.9,321.99261474609375,0.9110000133514404,16,0.0,0.0,1561097980,,,,0,0.0,5,-59.32,20.599999999999998,-1499.5609130859375,25.46723175048828,,,I,153858492483368
Raw,153858492,104090470000000,18,0.0,-1384850346948301739,-0.30525779724121094,113.13037248328328,-10.52690077344292,11.072000752201536,12,27,0.0,16399,567223343955267,80,20.4,-79.08186340332031,2.0859999656677246,16,0.0,0.0,1561097980,,,,0,0.0,5,-59.32,16.099999999999998,-1499.5609130859375,25.46723175048828,,,I,153858492514253
Raw,153858492,104090470000000,18,0.0,-1384850346948301739,-0.30525779724121094,113.13037248328328,-10.52690077344292,11.072000752201536,12,6,0.0,16399,567223292703176,35,26.8,304.8146667480469,0.7354999780654907,16,0.0,0.0,1561097980,,,,0,0.0,5,-59.32,22.5,-1499.5609130859375,25.46723175048828,,,I,153858492545243
Raw,153858492,104090470000000,18,0.0,-1384850346948301739,-0.30525779724121094,113.13037248328328,-10.52690077344292,11.072000752201536,12,4,0.0,16399,567223290203605,11,37.4,-10.101277351379395,1.1521999835968018,16,0.0,0.0,1561097980,,,,0,0.0,5,-59.32,33.1,-1499.5609130859375,25.46723175048828,,,I,153858492578159
Raw,153858492,104090470000000,18,0.0,-1384850346948301739,-0.30525779724121094,113.13037248328328,-10.52690077344292,11.072000752201536,12,3,0.0,16399,567223296844282,35,26.5,-3.908003807067871,5.421600341796875,16,0.0,0.0,1561097980,,,,0,0.0,5,-59.32,22.2,-1499.5609130859375,25.46723175048828,,,I,153858492612326
Raw,153858492,104090470000000,18,0.0,-1384850346948301739,-0.30525779724121094,113.13037248328328,-10.52690077344292,11.072000752201536,12,1,0.0,16399,567223294635343,12,36.3,-8.31202507019043,1.0994298458099365,16,0.0,0.0,1561097980,,,,0,0.0,5,-59.32,31.999999999999996,-1499.5609130859375,25.46723175048828,,,I,153858492643055
Raw,153858492,104090470000000,18,0.0,-1384850346948301739,-0.30525779724121094,113.13037248328328,-10.52690077344292,11.072000752201536,12,3,0.0,23567,567237323703771,27,28.4,246.2091064453125,0.035645972937345505,16,0.0,0.0,1575420030,,,,0,0.0,6,-61.42,24.099999999999998,-1432.1915283203125,27.982303619384766,,,C,153858492676753
Raw,153858492,104090470000000,18,0.0,-1384850346948301739,-0.30525779724121094,113.13037248328328,-10.52690077344292,11.072000752201536,12,8,0.0,23567,567237323491551,12,37.1,292.9408874511719,0.03749757260084152,16,0.0,0.0,1575420030,,,,0,0.0,6,-61.42,32.800000000000004,-1432.1915283203125,27.982303619384766,,,C,153858492708107
Raw,153858492,104090470000000,18,0.0,-1384850346948301739,-0.30525779724121094,113.13037248328328,-10.52690077344292,11.072000752201536,12,11,0.0,23567,567237330136472,40,25.5,518.5443725585938,0.8145443797111511,16,0.0,0.0,1575420030,,,,0,0.0,6,-61.42,21.2,-1432.1915283203125,27.982303619384766,,,C,153858492737743
Raw,153858492,104090470000000,18,0.0,-1384850346948301739,-0.30525779724121094,113.13037248328328,-10.52690077344292,11.072000752201536,12,15,0.0,23567,567237325056117,27,28.5,-539.0303955078125,0.03864597529172897,16,0.0,0.0,1575420030,,,,0,0.0,6,-61.42,24.2,-1432.1915283203125,27.982303619384766,,,C,153858492767326
Raw,153858492,104090470000000,18,0.0,-1384850346948301739,-0.30525779724121094,113.13037248328328,-10.52690077344292,11.072000752201536,12,25,0.0,23567,567237335365197,11,37.3,166.49766540527344,0.0666983425617218,16,0.0,0.0,1575420030,,,,0,0.0,6,-61.42,33.0,-1432.1915283203125,27.982303619384766,,,C,153858492805139
Raw,153858492,104090470000000,18,0.0,-1384850346948301739,-0.30525779724121094,113.13037248328328,-10.52690077344292,11.072000752201536,12,30,0.0,23567,567237328055999,61,22.7,-425.61083984375,1.0355000495910645,16,0.0,0.0,1575420030,,,,0,0.0,6,-61.42,18.4,-1432.1915283203125,27.982303619384766,,,C,153858492835243
Raw,153858492,104090470000000,18,0.0,-1384850346948301739,-0.30525779724121094,113.13037248328328,-10.52690077344292,11.072000752201536,12,34,0.0,23567,567237338381663,53,23.9,-281.2293395996094,1.6870489120483398,16,0.0,0.0,1575420030,,,,0,0.0,6,-61.42,19.599999999999998,-1432.1915283203125,27.982303619384766,,,C,153858492868055
Raw,153858492,104090470000000,18,0.0,-1384850346948301739,-0.30525779724121094,113.13037248328328,-10.52690077344292,11.072000752201536,12,3,0.0,81935,567237341661304,12,22.9,-425.4481506347656,1.0130000114440918,16,0.0,0.0,1176450050,,,,0,0.0,1,-38.34,18.0,-11.751157760620117,7.665559768676758,,,Q,153858492897482
Raw,153858492,104090470000000,18,0.0,-1384850346948301739,-0.30525779724121094,113.13037248328328,-10.52690077344292,11.072000752201536,12,8,0.0,81935,567237338347137,8,28.2,390.35772705078125,0.812529444694519,16,0.0,0.0,1176450050,,,,0,0.0,1,-38.34,23.299999999999997,-11.751157760620117,7.665559768676758,,,Q,153858492927795
Raw,153858492,104090470000000,18,0.0,-1384850346948301739,-0.30525779724121094,113.13037248328328,-10.52690077344292,11.072000752201536,12,14,0.0,81935,567237345326835,14,22.7,-457.671142578125,0.9890000224113464,16,0.0,0.0,1176450050,,,,0,0.0,1,-38.34,17.799999999999997,-11.751157760620117,7.665559768676758,,,Q,153858492958368
Raw,153858492,104090470000000,18,0.0,-1384850346948301739,-0.30525779724121094,113.13037248328328,-10.52690077344292,11.072000752201536,12,194,0.0,16399,567237291064935,5,32.6,-223.0189971923828,0.03754531219601631,16,0.0,0.0,1176450050,,,,0,0.0,4,-38.34,27.700000000000003,-11.751157760620117,7.665559768676758,,,Q,153858492996284
Raw,153858493,104090470000000,18,0.0,-1384850346948301739,-0.30525779724121094,113.13037248328328,-10.52690077344292,11.072000752201536,12,195,0.0,16399,567237288803888,12,23.1,152.28524780273438,1.3334999084472656,16,0.0,0.0,1176450050,,,,0,0.0,4,-38.34,18.200000000000003,-11.751157760620117,7.665559768676758,,,Q,153858493027534
Raw,153858493,104090470000000,18,0.0,-1384850346948301739,-0.30525779724121094,113.13037248328328,-10.52690077344292,11.072000752201536,12,3,0.0,81935,567237323703631,8,27.7,246.3061981201172,0.026156898587942123,16,0.0,0.0,1176450050,,,,0,0.0,6,-38.34,22.4,-1296.9132080078125,233.8696746826172,,,Q,153858493058159
Raw,153858493,104090470000000,18,0.0,-1384850346948301739,-0.30525779724121094,113.13037248328328,-10.52690077344292,11.072000752201536,12,11,0.0,81935,567237330136790,10,25.6,518.5995483398438,0.0757475197315216,16,0.0,0.0,1176450050,,,,0,0.0,6,-38.34,20.3,-1296.9132080078125,233.8696746826172,,,Q,153858493088472
Raw,153858493,104090470000000,18,0.0,-1384850346948301739,-0.30525779724121094,113.13037248328328,-10.52690077344292,11.072000752201536,12,15,0.0,81935,567237325055997,5,33.9,-538.9886474609375,0.02561478689312935,16,0.0,0.0,1176450050,,,,0,0.0,6,-38.34,28.599999999999998,-1296.9132080078125,233.8696746826172,,,Q,153858493117743
Raw,153858493,104090470000000,18,0.0,-1384850346948301739,-0.30525779724121094,113.13037248328328,-10.52690077344292,11.072000752201536,12,25,0.0,81935,567237335365054,3,38.1,166.44970703125,0.06404022872447968,16,0.0,0.0,1176450050,,,,0,0.0,6,-38.34,32.800000000000004,-1296.9132080078125,233.8696746826172,,,Q,153858493304722
Raw,153858493,104090470000000,18,0.0,-1384850346948301739,-0.30525779724121094,113.13037248328328,-10.52690077344292,11.072000752201536,12,27,0.0,16399,567223343955116,12,22.5,-79.6465072631836,1.8860000371932983,16,0.0,0.0,1176450050,,,,0,0.0,5,-38.34,18.0,-1454.82177734375,238.8285369873047,,,Q,153858493349774
Raw,153858493,104090470000000,18,0.0,-1384850346948301739,-0.30525779724121094,113.13037248328328,-10.52690077344292,11.072000752201536,12,30,0.0,16399,567223332515585,23,17.6,-393.416259765625,2.439500093460083,16,0.0,0.0,1176450050,,,,0,0.0,5,-38.34,13.100000000000001,-1454.82177734375,238.8285369873047,,,Q,153858493379201
Raw,153858493,104090470000000,18,0.0,-1384850346948301739,-0.30525779724121094,113.13037248328328,-10.52690077344292,11.072000752201536,12,38,0.0,16399,567223292386615,4,35.0,-315.4867858886719,0.06224140524864197,16,0.0,0.0,1176450050,,,,0,0.0,5,-38.34,30.5,-1454.82177734375,238.8285369873047,,,Q,153858493408316
Raw,153858493,104090470000000,18,0.0,-1384850346948301739,-0.30525779724121094,113.13037248328328,-10.52690077344292,11.072000752201536,12,46,0.0,16399,567223337707189,12,22.7,-504.7888488769531,1.037000060081482,16,0.0,0.0,1176450050,,,,0,0.0,5,-38.34,18.2,-1454.82177734375,238.8285369873047,,,Q,153858493436857
Raw,153858493,104090470000000,18,0.0,-1384850346948301739,-0.30525779724121094,113.13037248328328,-10.52690077344292,11.072000752201536,12,27,0.0,16399,567223343955228,10,27.7,-80.01848602294922,0.9290000200271606,16,0.0,0.0,1575420030,,,,0,0.0,5,-61.42,20.7,-1493.671630859375,237.09266662597656,,,P,153858493464982
Raw,153858493,104090470000000,18,0.0,-1384850346948301739,-0.30525779724121094,113.13037248328328,-10.52690077344292,11.072000752201536,12,28,0.0,16399,567223343007302,9,28.1,322.4716491699219,0.9290000200271606,16,0.0,0.0,1575420030,,,,0,0.0,5,-61.42,21.1,-1493.671630859375,237.09266662597656,,,P,153858493493524
Raw,153858493,104090470000000,18,0.0,-1384850346948301739,-0.30525779724121094,113.13037248328328,-10.52690077344292,11.072000752201536,12,30,0.0,16399,567223332517390,3,40.8,-394.0981750488281,0.4305000305175781,16,0.0,0.0,1575420030,,,,0,0.0,5,-61.42,33.8,-1493.671630859375,237.09266662597656,,,P,153858493524514
Raw,153858493,104090470000000,18,0.0,-1384850346948301739,-0.30525779724121094,113.13037248328328,-10.52690077344292,11.072000752201536,12,37,0.0,16399,567223345488185,14,24.6,8.9628324508667,1.215999960899353,16,0.0,0.0,1575420030,,,,0,0.0,5,-61.42,17.6,-1493.671630859375,237.09266662597656,,,P,153858493555347
Raw,153858493,104090470000000,18,0.0,-1384850346948301739,-0.30525779724121094,113.13037248328328,-10.52690077344292,11.072000752201536,12,38,0.0,16399,567223292386630,2,41.2,-315.51641845703125,0.4305000305175781,16,0.0,0.0,1575420030,,,,0,0.0,5,-61.42,34.2,-1493.671630859375,237.09266662597656,,,P,153858493584097
Raw,153858493,104090470000000,18,0.0,-1384850346948301739,-0.30525779724121094,113.13037248328328,-10.52690077344292,11.072000752201536,12,46,0.0,16399,567223337707345,5,35.3,-505.08697509765625,0.5929999947547913,16,0.0,0.0,1575420030,,,,0,0.0,5,-61.42,28.299999999999997,-1493.671630859375,237.09266662597656,,,P,153858493613159
Raw,153859459,104091470000000,18,0.0,-1384850346948301765,-0.2630805969238281,113.3996993303299,-12.17889520178801,11.119129767755814,12,2,0.0,16399,567238343870445,27,27.8,514.2210693359375,0.6889999508857727,16,0.0,0.0,1575420030,,,,0,0.0,1,-56.62,24.2,0.0,0.0,,,C,153859459918836
Raw,153859459,104091470000000,18,0.0,-1384850346948301765,-0.2630805969238281,113.3996993303299,-12.17889520178801,11.119129767755814,12,3,0.0,16399,567238341662760,53,22.9,-424.0694580078125,1.0220000743865967,16,0.0,0.0,1575420030,,,,0,0.0,1,-56.62,19.299999999999997,0.0,0.0,,,C,153859459983055
Raw,153859460,104091470000000,18,0.0,-1384850346948301765,-0.2630805969238281,113.3996993303299,-12.17889520178801,11.119129767755814,12,7,0.0,16399,567238348914143,35,26.5,319.693359375,0.7414999604225159,16,0.0,0.0,1575420030,,,,0,0.0,1,-56.62,22.9,0.0,0.0,,,C,153859460009982
Raw,153859460,104091470000000,18,0.0,-1384850346948301765,-0.2630805969238281,113.3996993303299,-12.17889520178801,11.119129767755814,12,8,0.0,16399,567238338345772,24,29.5,390.7992248535156,4.65955114364624,16,0.0,0.0,1575420030,,,,0,0.0,1,-56.62,25.9,0.0,0.0,,,C,153859460031284
Raw,153859460,104091470000000,18,0.0,-1384850346948301765,-0.2630805969238281,113.3996993303299,-12.17889520178801,11.119129767755814,12,14,0.0,16399,567238345328362,27,28.1,-457.29473876953125,0.6360000371932983,16,0.0,0.0,1575420030,,,,0,0.0,1,-56.62,24.5,0.0,0.0,,,C,153859460057117
Raw,153859460,104091470000000,18,0.0,-1384850346948301765,-0.2630805969238281,113.3996993303299,-12.17889520178801,11.119129767755814,12,17,0.0,16399,567238343958308,21,29.6,-126.5120620727539,6.3627824783325195,16,0.0,0.0,1575420030,,,,0,0.0,1,-56.62,26.0,0.0,0.0,,,C,153859460076596
Raw,153859460,104091470000000,18,0.0,-1384850346948301765,-0.2630805969238281,113.3996993303299,-12.17889520178801,11.119129767755814,12,19,0.0,16399,567238337905524,46,24.2,-340.197509765625,0.8479999899864197,16,0.0,0.0,1575420030,,,,0,0.0,1,-56.62,20.599999999999998,0.0,0.0,,,C,153859460095659
Raw,153859460,104091470000000,18,0.0,-1384850346948301765,-0.2630805969238281,113.3996993303299,-12.17889520178801,11.119129767755814,12,21,0.0,16399,567238341862021,12,36.2,637.7023315429688,5.758307456970215,16,0.0,0.0,1575420030,,,,0,0.0,1,-56.62,32.6,0.0,0.0,,,C,153859460114461
Raw,153859460,104091470000000,18,0.0,-1384850346948301765,-0.2630805969238281,113.3996993303299,-12.17889520178801,11.119129767755814,12,22,0.0,16399,567238339555689,21,30.4,-457.10235595703125,12.077592849731445,16,0.0,0.0,1575420030,,,,0,0.0,1,-56.62,26.799999999999997,0.0,0.0,,,C,153859460132742
Raw,153859460,104091470000000,18,0.0,-1384850346948301765,-0.2630805969238281,113.3996993303299,-12.17889520178801,11.119129767755814,12,30,0.0,16399,567238347884757,21,29.6,-22.6827335357666,1.7897340059280396,16,0.0,0.0,1575420030,,,,0,0.0,1,-56.62,26.0,0.0,0.0,,,C,153859460150815
Raw,153859460,104091470000000,18,0.0,-1384850346948301765,-0.2630805969238281,113.3996993303299,-12.17889520178801,11.119129767755814,12,194,0.0,16399,567238291065603,14,34.2,-222.8109130859375,0.03649565577507019,16,0.0,0.0,1575420030,,,,0,0.0,4,-56.62,30.6,0.0,0.0,,,C,153859460168784
Raw,153859460,104091470000000,18,0.0,-1384850346948301765,-0.2630805969238281,113.3996993303299,-12.17889520178801,11.119129767755814,12,195,0.0,16399,567238288803162,61,22.5,152.81532287597656,1.0115000009536743,16,0.0,0.0,1575420030,,,,0,0.0,4,-56.62,18.9,0.0,0.0,,,C,153859460194669
Raw,153859460,104091470000000,18,0.0,-1384850346948301765,-0.2630805969238281,113.3996993303299,-12.17889520178801,11.119129767755814,12,14,0.0,49359,59620353919772,31,27.8,53.258914947509766,0.6739999651908875,16,0.0,0.0,1598062460,,,,0,0.0,3,-56.87,23.8,3870.026611328125,23.579242706298828,,,C,153859460221492
Raw,153859460,104091470000000,18,0.0,-1384850346948301765,-0.2630805969238281,113.3996993303299,-12.17889520178801,11.119129767755814,12,18,0.0,49359,59620346523662,24,29.3,-430.8547058105469,2.9193267822265625,16,0.0,0.0,1600312450,,,,0,0.0,3,-56.87,25.3,3870.026611328125,23.579242706298828,,,C,153859460260867
Raw,153859460,104091470000000,18,0.0,-1384850346948301765,-0.2630805969238281,113.3996993303299,-12.17889520178801,11.119129767755814,12,15,0.0,49359,59620348873305,21,30.0,-603.2963256835938,1.7590868473052979,16,0.0,0.0,1602000000,,,,0,0.0,3,-56.87,26.0,3870.026611328125,23.579242706298828,,,C,153859460285294
Raw,153859460,104091470000000,18,0.0,-1384850346948301765,-0.2630805969238281,113.3996993303299,-12.17889520178801,11.119129767755814,12,24,0.0,49359,59620345752903,27,28.1,628.6268310546875,0.6360000371932983,16,0.0,0.0,1603124990,,,,0,0.0,3,-56.87,24.1,3870.026611328125,23.579242706298828,,,C,153859460306180
Raw,153859460,104091470000000,18,0.0,-1384850346948301765,-0.2630805969238281,113.3996993303299,-12.17889520178801,11.119129767755814,12,17,0.0,49359,59620352712932,31,27.9,131.3256378173828,0.6754999756813049,16,0.0,0.0,1604249980,,,,0,0.0,3,-56.87,23.9,3870.026611328125,23.579242706298828,,,C,153859460436076
Raw,153859460,104091470000000,18,0.0,-1384850346948301765,-0.2630805969238281,113.3996993303299,-12.17889520178801,11.119129767755814,12,60,0.0,16399,567224293175086,13,35.8,-6.759790420532227,1.6607000827789307,16,0.0,0.0,1561097980,,,,0,0.0,5,-59.3,31.499999999999996,-1499.4788818359375,25.482364654541016,,,I,153859460477638
Raw,153859460,104091470000000,18,0.0,-1384850346948301765,-0.2630805969238281,113.3996993303299,-12.17889520178801,11.119129767755814,12,46,0.0,16399,567224337709075,21,30.9,-504.90045166015625,18.4982852935791,16,0.0,0.0,1561097980,,,,0,0.0,5,-59.3,26.599999999999998,-1499.4788818359375,25.482364654541016,,,I,153859460501857
Raw,153859460,104091470000000,18,0.0,-1384850346948301765,-0.2630805969238281,113.3996993303299,-12.17889520178801,11.119129767755814,12,43,0.0,16399,567224328537491,17,32.7,476.3591003417969,0.6235577464103699,16,0.0,0.0,1561097980,,,,0,0.0,5,-59.3,28.400000000000002,-1499.4788818359375,25.482364654541016,,,I,153859460523367
Raw,153859460,104091470000000,18,0.0,-1384850346948301765,-0.2630805969238281,113.3996993303299,-12.17889520178801,11.119129767755814,12,38,0.0,16399,567224292387687,13,35.8,-314.9418029785156,0.03396894410252571,16,0.0,0.0,1561097980,,,,0,0.0,5,-59.3,31.499999999999996,-1499.4788818359375,25.482364654541016,,,I,153859460544409
Raw,153859460,104091470000000,18,0.0,-1384850346948301765,-0.2630805969238281,113.3996993303299,-12.17889520178801,11.119129767755814,12,30,0.0,16399,567224332518718,7,42.2,-392.96368408203125,0.029744073748588562,16,0.0,0.0,1561097980,,,,0,0.0,5,-59.3,37.900000000000006,-1499.4788818359375,25.482364654541016,,,I,153859460566753
Raw,153859460,104091470000000,18,0.0,-1384850346948301765,-0.2630805969238281,113.3996993303299,-12.17889520178801,11.119129767755814,12,27,0.0,16399,567224343955448,70,22.0,-78.5921630859375,1.0190000534057617,16,0.0,0.0,1561097980,,,,0,0.0,5,-59.3,17.7,-1499.4788818359375,25.482364654541016,,,I,153859460590086
Raw,153859460,104091470000000,18,0.0,-1384850346948301765,-0.2630805969238281,113.3996993303299,-12.17889520178801,11.119129767755814,12,16,0.0,16399,567224291875130,80,20.6,306.91754150390625,2.743000030517578,16,0.0,0.0,1561097980,,,,0,0.0,5,-59.3,16.3,-1499.4788818359375,25.482364654541016,,,I,153859460610190
Raw,153859460,104091470000000,18,0.0,-1384850346948301765,-0.2630805969238281,113.3996993303299,-12.17889520178801,11.119129767755814,12,9,0.0,16399,567224295392592,80,21.1,248.33587646484375,2.2839999198913574,16,0.0,0.0,1561097980,,,,0,0.0,5,-59.3,16.8,-1499.4788818359375,25.482364654541016,,,I,153859460631440
Raw,153859460,104091470000000,18,0.0,-1384850346948301765,-0.2630805969238281,113.3996993303299,-12.17889520178801,11.119129767755814,12,6,0.0,16399,567224292702135,53,23.6,306.274169921875,0.9254999756813049,16,0.0,0.0,1561097980,,,,0,0.0,5,-59.3,19.3,-1499.4788818359375,25.482364654541016,,,I,153859460652378
Raw,153859460,104091470000000,18,0.0,-1384850346948301765,-0.2630805969238281,113.3996993303299,-12.17889520178801,11.119129767755814,12,4,0.0,16399,567224290203652,13,36.2,-10.139684677124023,1.2364000082015991,16,0.0,0.0,1561097980,,,,0,0.0,5,-59.3,31.900000000000002,-1499.4788818359375,25.482364654541016,,,I,153859460671701
Raw,153859460,104091470000000,18,0.0,-1384850346948301765,-0.2630805969238281,113.3996993303299,-12.17889520178801,11.119129767755814,12,1,0.0,16399,567224294635357,17,33.0,-9.07386589050293,1.6589000225067139,16,0.0,0.0,1561097980,,,,0,0.0,5,-59.3,28.7,-1499.4788818359375,25.482364654541016,,,I,153859460692065
Raw,153859460,104091470000000,18,0.0,-1384850346948301765,-0.2630805969238281,113.3996993303299,-12.17889520178801,11.119129767755814,12,3,0.0,23567,567238323702935,24,29.3,247.1898956298828,0.7988741397857666,16,0.0,0.0,1575420030,,,,0,0.0,6,-61.46,25.0,-1432.125,27.99611473083496,,,C,153859460711909
Raw,153859460,104091470000000,18,0.0,-1384850346948301765,-0.2630805969238281,113.3996993303299,-12.17889520178801,11.119129767755814,12,8,0.0,23567,567238323490571,16,33.3,293.9812316894531,0.8052928447723389,16,0.0,0.0,1575420030,,,,0,0.0,6,-61.46,28.999999999999996,-1432.125,27.99611473083496,,,C,153859460732378
Raw,153859460,104091470000000,18,0.0,-1384850346948301765,-0.2630805969238281,113.3996993303299,-12.17889520178801,11.119129767755814,12,11,0.0,23567,567238330135192,40,25.8,519.3872680664062,2.343512535095215,16,0.0,0.0,1575420030,,,,0,0.0,6,-61.46,21.5,-1432.125,27.99611473083496,,,C,153859460754305
Raw,153859460,104091470000000,18,0.0,-1384850346948301765,-0.2630805969238281,113.3996993303299,-12.17889520178801,11.119129767755814,12,15,0.0,23567,567238325057928,21,30.3,-538.7261352539062,14.571304321289062,16,0.0,0.0,1575420030,,,,0,0.0,6,-61.46,26.0,-1432.125,27.99611473083496,,,C,153859460778003
Raw,153859461,104091470000000,18,0.0,-1384850346948301765,-0.2630805969238281,113.3996993303299,-12.17889520178801,11.119129767755814,12,25,0.0,23567,567238335364616,11,37.7,166.6916046142578,0.0666983425617218,16,0.0,0.0,1575420030,,,,0,0.0,6,-61.46,33.400000000000006,-1432.125,27.99611473083496,,,C,153859461059982
Raw,153859461,104091470000000,18,0.0,-1384850346948301765,-0.2630805969238281,113.3996993303299,-12.17889520178801,11.119129767755814,12,34,0.0,23567,567238338382575,92,20.1,-280.7021789550781,1.2085000276565552,16,0.0,0.0,1575420030,,,,0,0.0,6,-61.46,15.8,-1432.125,27.99611473083496,,,C,153859461082638
Raw,153859461,104091470000000,18,0.0,-1384850346948301765,-0.2630805969238281,113.3996993303299,-12.17889520178801,11.119129767755814,12,3,0.0,81935,567238341662744,16,21.5,-425.4481506347656,1.0929999351501465,16,0.0,0.0,1176450050,,,,0,0.0,1,-38.28,16.6,-11.751157760620117,7.665559768676758,,,Q,153859461103107
Raw,153859461,104091470000000,18,0.0,-1384850346948301765,-0.2630805969238281,113.3996993303299,-12.17889520178801,11.119129767755814,12,8,0.0,81935,567238338345839,8,27.2,390.8118896484375,4.6534247398376465,16,0.0,0.0,1176450050,,,,0,0.0,1,-38.28,22.299999999999997,-11.751157760620117,7.665559768676758,,,Q,153859461123055
Raw,153859461,104091470000000,18,0.0,-1384850346948301765,-0.2630805969238281,113.3996993303299,-12.17889520178801,11.119129767755814,12,14,0.0,81935,567238345328392,12,23.0,-457.4673156738281,0.9089999794960022,16,0.0,0.0,1176450050,,,,0,0.0,1,-38.28,18.1,-11.751157760620117,7.665559768676758,,,Q,153859461144201
Raw,153859461,104091470000000,18,0.0,-1384850346948301765,-0.2630805969238281,113.3996993303299,-12.17889520178801,11.119129767755814,12,194,0.0,16399,567238291065680,7,29.3,-222.80360412597656,0.07650851458311081,16,0.0,0.0,1176450050,,,,0,0.0,4,-38.28,24.4,-11.751157760620117,7.665559768676758,,,Q,153859461164617
Raw,153859461,104091470000000,18,0.0,-1384850346948301765,-0.2630805969238281,113.3996993303299,-12.17889520178801,11.119129767755814,12,195,0.0,16399,567238288803379,14,22.7,152.54006958007812,0.9934999942779541,16,0.0,0.0,1176450050,,,,0,0.0,4,-38.28,17.799999999999997,-11.751157760620117,7.665559768676758,,,Q,153859461185971
Raw,153859461,104091470000000,18,0.0,-1384850346948301765,-0.2630805969238281,113.3996993303299,-12.17889520178801,11.119129767755814,12,3,0.0,81935,567238323702788,11,25.2,246.03887939453125,6.255224227905273,16,0.0,0.0,1176450050,,,,0,0.0,6,-38.28,19.9,-1296.8507080078125,234.40463256835938,,,Q,153859461208055
Raw,153859461,104091470000000,18,0.0,-1384850346948301765,-0.2630805969238281,113.3996993303299,-12.17889520178801,11.119129767755814,12,11,0.0,81935,567238330135065,16,21.8,519.1229248046875,1.0764999389648438,16,0.0,0.0,1176450050,,,,0,0.0,6,-38.28,16.5,-1296.8507080078125,234.40463256835938,,,Q,153859461228888
Raw,153859461,104091470000000,18,0.0,-1384850346948301765,-0.2630805969238281,113.3996993303299,-12.17889520178801,11.119129767755814,12,15,0.0,81935,567238325057791,5,33.0,-538.4467163085938,0.028545312583446503,16,0.0,0.0,1176450050,,,,0,0.0,6,-38.28,27.7,-1296.8507080078125,234.40463256835938,,,Q,153859461320763
Raw,153859461,104091470000000,18,0.0,-1384850346948301765,-0.2630805969238281,113.3996993303299,-12.17889520178801,11.119129767755814,12,25,0.0,81935,567238335364498,4,35.6,166.6812744140625,0.06674140691757202,16,0.0,0.0,1176450050,,,,0,0.0,6,-38.28,30.3,-1296.8507080078125,234.40463256835938,,,Q,153859461354253
Raw,153859461,104091470000000,18,0.0,-1384850346948301765,-0.2630805969238281,113.3996993303299,-12.17889520178801,11.119129767755814,12,36,0.0,81935,567238338907683,23,18.4,233.19314575195312,2.2685000896453857,16,0.0,0.0,1176450050,,,,0,0.0,6,-38.28,13.099999999999998,-1296.8507080078125,234.40463256835938,,,Q,153859461373211
Raw,153859461,104091470000000,18,0.0,-1384850346948301765,-0.2630805969238281,113.3996993303299,-12.17889520178801,11.119129767755814,12,30,0.0,16399,567224332518615,4,34.8,-393.0318603515625,0.8267254829406738,16,0.0,0.0,1176450050,,,,0,0.0,5,-38.28,30.299999999999997,-1454.75927734375,239.3646240234375,,,Q,153859461392794
Raw,153859461,104091470000000,18,0.0,-1384850346948301765,-0.2630805969238281,113.3996993303299,-12.17889520178801,11.119129767755814,12,38,0.0,16399,567224292387660,5,33.3,-314.97149658203125,0.06611479073762894,16,0.0,0.0,1176450050,,,,0,0.0,5,-38.28,28.799999999999997,-1454.75927734375,239.3646240234375,,,Q,153859461413940
Raw,153859461,104091470000000,18,0.0,-1384850346948301765,-0.2630805969238281,113.3996993303299,-12.17889520178801,11.119129767755814,12,46,0.0,16399,567224337709144,16,21.1,-504.31744384765625,1.1169999837875366,16,0.0,0.0,1176450050,,,,0,0.0,5,-38.28,16.6,-1454.75927734375,239.3646240234375,,,Q,153859461432638
Raw,153859461,104091470000000,18,0.0,-1384850346948301765,-0.2630805969238281,113.3996993303299,-12.17889520178801,11.119129767755814,12,28,0.0,16399,567224343006271,11,26.0,322.849853515625,2.4341049194335938,16,0.0,0.0,1575420030,,,,0,0.0,5,-61.46,19.0,-1493.609130859375,237.628662109375,,,P,153859461452794
Raw,153859461,104091470000000,18,0.0,-1384850346948301765,-0.2630805969238281,113.3996993303299,-12.17889520178801,11.119129767755814,12,30,0.0,16399,567224332518705,3,40.8,-392.9897766113281,0.05619833990931511,16,0.0,0.0,1575420030,,,,0,0.0,5,-61.46,33.8,-1493.609130859375,237.628662109375,,,P,153859461472899
Raw,153859461,104091470000000,18,0.0,-1384850346948301765,-0.2630805969238281,113.3996993303299,-12.17889520178801,11.119129767755814,12,38,0.0,16399,567224292387653,3,38.9,-314.9879150390625,0.057891953736543655,16,0.0,0.0,1575420030,,,,0,0.0,5,-61.46,31.9,-1493.609130859375,237.628662109375,,,P,153859461491284
Raw,153859461,104091470000000,18,0.0,-1384850346948301765,-0.2630805969238281,113.3996993303299,-12.17889520178801,11.119129767755814,12,40,0.0,16399,567224294488635,18,22.7,-19.305294036865234,1.7725000381469727,16,0.0,0.0,1575420030,,,,0,0.0,5,-61.46,15.7,-1493.609130859375,237.628662109375,,,P,153859461508940
Raw,153859461,104091470000000,18,0.0,-1384850346948301765,-0.2630805969238281,113.3996993303299,-12.17889520178801,11.119129767755814,12,46,0.0,16399,567224337708981,9,28.6,-504.2782287597656,0.8269999623298645,16,0.0,0.0,1575420030,,,,0,0.0,5,-61.46,21.6,-1493.609130859375,237.628662109375,,,P,153859461525919
Raw,153860460,104092470000000,18,0.0,-1384850346948301785,-0.5584621429443359,116.83069169521332,-10.224626444525692,12.950408662284305,12,2,0.0,16399,567239343868554,16,32.6,514.5471801757812,0.05340523272752762,16,0.0,0.0,1575420030,,,,0,0.0,1,-56.67,29.0,0.0,0.0,,,C,153860460799877
Raw,153860460,104092470000000,18,0.0,-1384850346948301785,-0.5584621429443359,116.83069169521332,-10.224626444525692,12.950408662284305,12,3,0.0,16399,567239341664092,35,25.8,-425.2207336425781,0.8119999766349792,16,0.0,0.0,1575420030,,,,0,0.0,1,-56.67,22.2,0.0,0.0,,,C,153860460881284
Raw,153860460,104092470000000,18,0.0,-1384850346948301785,-0.5584621429443359,116.83069169521332,-10.224626444525692,12.950408662284305,12,7,0.0,16399,567239348913012,31,27.5,320.4069519042969,0.6814999580383301,16,0.0,0.0,1575420030,,,,0,0.0,1,-56.67,23.9,0.0,0.0,,,C,153860460910607
Raw,153860460,104092470000000,18,0.0,-1384850346948301785,-0.5584621429443359,116.83069169521332,-10.224626444525692,12.950408662284305,12,8,0.0,16399,567239338344350,13,35.4,391.0282287597656,0.02489195019006729,16,0.0,0.0,1575420030,,,,0,0.0,1,-56.67,31.799999999999997,0.0,0.0,,,C,153860460933732
Raw,153860460,104092470000000,18,0.0,-1384850346948301785,-0.5584621429443359,116.83069169521332,-10.224626444525692,12.950408662284305,12,21,0.0,16399,567239341859786,21,30.4,639.167724609375,13.216354370117188,16,0.0,0.0,1575420030,,,,0,0.0,1,-56.67,26.799999999999997,0.0,0.0,,,C,153860460963263
Raw,153860460,104092470000000,18,0.0,-1384850346948301785,-0.5584621429443359,116.83069169521332,-10.224626444525692,12.950408662284305,12,22,0.0,16399,567239339557192,16,33.3,-456.2628479003906,9.193501472473145,16,0.0,0.0,1575420030,,,,0,0.0,1,-56.67,29.699999999999996,0.0,0.0,,,C,153860460985242
Raw,153860461,104092470000000,18,0.0,-1384850346948301785,-0.5584621429443359,116.83069169521332,-10.224626444525692,12.950408662284305,12,30,0.0,16399,567239347884975,61,22.3,-22.521255493164062,1.0130000114440918,16,0.0,0.0,1575420030,,,,0,0.0,1,-56.67,18.7,0.0,0.0,,,C,153860461005711
Raw,153860461,104092470000000,18,0.0,-1384850346948301785,-0.5584621429443359,116.83069169521332,-10.224626444525692,12.950408662284305,12,194,0.0,16399,567239291066398,14,34.4,-222.58189392089844,0.03649565577507019,16,0.0,0.0,1575420030,,,,0,0.0,4,-56.67,30.799999999999997,0.0,0.0,,,C,153860461032429
Raw,153860461,104092470000000,18,0.0,-1384850346948301785,-0.5584621429443359,116.83069169521332,-10.224626444525692,12.950408662284305,12,195,0.0,16399,567239288802788,40,25.0,152.98660278320312,0.8014999628067017,16,0.0,0.0,1575420030,,,,0,0.0,4,-56.67,21.4,0.0,0.0,,,C,153860461056544
Raw,153860461,104092470000000,18,0.0,-1384850346948301785,-0.5584621429443359,116.83069169521332,-10.224626444525692,12.950408662284305,12,196,0.0,16399,567239296193437,61,21.9,8.972347259521484,1.094499945640564,16,0.0,0.0,1575420030,,,,0,0.0,4,-56.67,18.299999999999997,0.0,0.0,,,C,153860461072898
Raw,153860461,104092470000000,18,0.0,-1384850346948301785,-0.5584621429443359,116.83069169521332,-10.224626444525692,12.950408662284305,12,14,0.0,49359,59621353919656,24,29.6,53.74089431762695,0.6617187857627869,16,0.0,0.0,1598062460,,,,0,0.0,3,-56.83,25.6,3870.025634765625,23.608932495117188,,,C,153860461089148
Raw,153860461,104092470000000,18,0.0,-1384850346948301785,-0.5584621429443359,116.83069169521332,-10.224626444525692,12.950408662284305,12,18,0.0,49359,59621346525039,19,31.1,-430.6817932128906,8.489825248718262,16,0.0,0.0,1600312450,,,,0,0.0,3,-56.83,27.1,3870.025634765625,23.608932495117188,,,C,153860461107482
Raw,153860461,104092470000000,18,0.0,-1384850346948301785,-0.5584621429443359,116.83069169521332,-10.224626444525692,12.950408662284305,12,15,0.0,49359,59621348875555,16,33.9,-602.8687744140625,0.045666225254535675,16,0.0,0.0,1602000000,,,,0,0.0,3,-56.83,29.9,3870.025634765625,23.608932495117188,,,C,153860461127065
Raw,153860461,104092470000000,18,0.0,-1384850346948301785,-0.5584621429443359,116.83069169521332,-10.224626444525692,12.950408662284305,12,24,0.0,49359,59621345750822,19,31.8,628.176025390625,0.6222795248031616,16,0.0,0.0,1603124990,,,,0,0.0,3,-56.83,27.8,3870.025634765625,23.608932495117188,,,C,153860461145346
Raw,153860461,104092470000000,18,0.0,-1384850346948301785,-0.5584621429443359,116.83069169521332,-10.224626444525692,12.950408662284305,12,17,0.0,49359,59621352712743,19,31.0,131.0465087890625,0.05074666440486908,16,0.0,0.0,1604249980,,,,0,0.0,3,-56.83,27.0,3870.025634765625,23.608932495117188,,,C,153860461162846
Raw,153860461,104092470000000,18,0.0,-1384850346948301785,-0.5584621429443359,116.83069169521332,-10.224626444525692,12.950408662284305,12,59,0.0,16399,567225294468584,16,33.5,-7.489540100097656,2.3759000301361084,16,0.0,0.0,1561097980,,,,0,0.0,5,-59.28,29.2,-1499.466552734375,25.502063751220703,,,I,153860461182794
Raw,153860461,104092470000000,18,0.0,-1384850346948301785,-0.5584621429443359,116.83069169521332,-10.224626444525692,12.950408662284305,12,43,0.0,16399,567225328535888,21,31.0,476.357421875,4.684943199157715,16,0.0,0.0,1561097980,,,,0,0.0,5,-59.28,26.7,-1499.466552734375,25.502063751220703,,,I,153860461350711
Raw,153860461,104092470000000,18,0.0,-1384850346948301785,-0.5584621429443359,116.83069169521332,-10.224626444525692,12.950408662284305,12,38,0.0,16399,567225292388751,14,35.0,-314.91497802734375,1.1873197555541992,16,0.0,0.0,1561097980,,,,0,0.0,5,-59.28,30.7,-1499.466552734375,25.502063751220703,,,I,153860461382742
Raw,153860461,104092470000000,18,0.0,-1384850346948301785,-0.5584621429443359,116.83069169521332,-10.224626444525692,12.950408662284305,12,30,0.0,16399,567225332520013,19,31.3,-392.6701354980469,0.6275629997253418,16,0.0,0.0,1561097980,,,,0,0.0,5,-59.28,27.0,-1499.466552734375,25.502063751220703,,,I,153860461402690
Raw,153860461,104092470000000,18,0.0,-1384850346948301785,-0.5584621429443359,116.83069169521332,-10.224626444525692,12.950408662284305,12,27,0.0,16399,567225343955629,24,29.4,-78.78119659423828,1.8440560102462769,16,0.0,0.0,1561097980,,,,0,0.0,5,-59.28,25.099999999999998,-1499.466552734375,25.502063751220703,,,I,153860461420398
Raw,153860461,104092470000000,18,0.0,-1384850346948301785,-0.5584621429443359,116.83069169521332,-10.224626444525692,12.950408662284305,12,9,0.0,16399,567225295391808,70,22.2,248.8159637451172,1.0010000467300415,16,0.0,0.0,1561097980,,,,0,0.0,5,-59.28,17.9,-1499.466552734375,25.502063751220703,,,I,153860461438367
Raw,153860461,104092470000000,18,0.0,-1384850346948301785,-0.5584621429443359,116.83069169521332,-10.224626444525692,12.950408662284305,12,8,0.0,16399,567225289306708,92,19.6,-349.58868408203125,2.559999942779541,16,0.0,0.0,1561097980,,,,0,0.0,5,-59.28,15.3,-1499.466552734375,25.502063751220703,,,I,153860461455502
Raw,153860461,104092470000000,18,0.0,-1384850346948301785,-0.5584621429443359,116.83069169521332,-10.224626444525692,12.950408662284305,12,6,0.0,16399,567225292701135,35,26.7,306.40863037109375,0.7354999780654907,16,0.0,0.0,1561097980,,,,0,0.0,5,-59.28,22.4,-1499.466552734375,25.502063751220703,,,I,153860461473054
Raw,153860461,104092470000000,18,0.0,-1384850346948301785,-0.5584621429443359,116.83069169521332,-10.224626444525692,12.950408662284305,12,4,0.0,16399,567225290203659,12,37.2,-10.600580215454102,1.1521999835968018,16,0.0,0.0,1561097980,,,,0,0.0,5,-59.28,32.900000000000006,-1499.466552734375,25.502063751220703,,,I,153860461492169
Raw,153860461,104092470000000,18,0.0,-1384850346948301785,-0.5584621429443359,116.83069169521332,-10.224626444525692,12.950408662284305,12,1,0.0,16399,567225294635391,10,38.5,-7.846965789794922,0.17312739789485931,16,0.0,0.0,1561097980,,,,0,0.0,5,-59.28,34.2,-1499.466552734375,25.502063751220703,,,I,153860461511440
Raw,153860461,104092470000000,18,0.0,-1384850346948301785,-0.5584621429443359,116.83069169521332,-10.224626444525692,12.950408662284305,12,2,0.0,23567,567239338852477,106,18.4,-205.5266876220703,2.748500108718872,16,0.0,0.0,1575420030,,,,0,0.0,6,-61.04,14.099999999999998,-1432.0452880859375,28.01316261291504,,,C,153860461530398
Raw,153860461,104092470000000,18,0.0,-1384850346948301785,-0.5584621429443359,116.83069169521332,-10.224626444525692,12.950408662284305,12,8,0.0,23567,567239323489588,40,25.7,294.11480712890625,1.5805284976959229,16,0.0,0.0,1575420030,,,,0,0.0,6,-61.04,21.4,-1432.0452880859375,28.01316261291504,,,C,153860461548263
Raw,153860461,104092470000000,18,0.0,-1384850346948301785,-0.5584621429443359,116.83069169521332,-10.224626444525692,12.950408662284305,12,11,0.0,23567,567239330133434,31,27.7,519.7109985351562,3.0996429920196533,16,0.0,0.0,1575420030,,,,0,0.0,6,-61.04,23.4,-1432.0452880859375,28.01316261291504,,,C,153860461567898
Raw,153860461,104092470000000,18,0.0,-1384850346948301785,-0.5584621429443359,116.83069169521332,-10.224626444525692,12.950408662284305,12,15,0.0,23567,567239325059698,35,27.1,-537.05078125,0.8065363764762878,16,0.0,0.0,1575420030,,,,0,0.0,6,-61.04,22.8,-1432.0452880859375,28.01316261291504,,,C,153860461585554
Raw,153860461,104092470000000,18,0.0,-1384850346948301785,-0.5584621429443359,116.83069169521332,-10.224626444525692,12.950408662284305,12,25,0.0,23567,567239335364090,11,37.3,166.9044189453125,0.0666983425617218,16,0.0,0.0,1575420030,,,,0,0.0,6,-61.04,33.0,-1432.0452880859375,28.01316261291504,,,C,153860461625086
Raw,153860461,104092470000000,18,0.0,-1384850346948301785,-0.5584621429443359,116.83069169521332,-10.224626444525692,12.950408662284305,12,36,0.0,23567,567239338906829,92,19.7,233.3095703125,2.888500213623047,16,0.0,0.0,1575420030,,,,0,0.0,6,-61.04,15.399999999999999,-1432.0452880859375,28.01316261291504,,,C,153860461643575
Raw,153860461,104092470000000,18,0.0,-1384850346948301785,-0.5584621429443359,116.83069169521332,-10.224626444525692,12.950408662284305,12,3,0.0,81935,567239341664154,12,23.2,-425.7030029296875,0.9329999685287476,16,0.0,0.0,1176450050,,,,0,0.0,1,-37.99,18.299999999999997,-11.805451393127441,7.664747714996338,,,Q,153860461668679
Raw,153860461,104092470000000,18,0.0,-1384850346948301785,-0.5584621429443359,116.83069169521332,-10.224626444525692,12.950408662284305,12,8,0.0,81935,567239338344551,4,34.7,390.9149169921875,0.042974233627319336,16,0.0,0.0,1176450050,,,,0,0.0,1,-37.99,29.800000000000004,-11.805451393127441,7.664747714996338,,,Q,153860461686752
Raw,153860461,104092470000000,18,0.0,-1384850346948301785,-0.5584621429443359,116.83069169521332,-10.224626444525692,12.950408662284305,12,14,0.0,81935,567239345329875,14,22.6,-457.3526306152344,0.9890000224113464,16,0.0,0.0,1176450050,,,,0,0.0,1,-37.99,17.700000000000003,-11.805451393127441,7.664747714996338,,,Q,153860461704825
Raw,153860461,104092470000000,18,0.0,-1384850346948301785,-0.5584621429443359,116.83069169521332,-10.224626444525692,12.950408662284305,12,30,0.0,81935,567239347884978,18,20.4,-22.67969512939453,2.6620001792907715,16,0.0,0.0,1176450050,,,,0,0.0,1,-37.99,15.499999999999998,-11.805451393127441,7.664747714996338,,,Q,153860461721700
Raw,153860461,104092470000000,18,0.0,-1384850346948301785,-0.5584621429443359,116.83069169521332,-10.224626444525692,12.950408662284305,12,194,0.0,16399,567239291066410,6,30.1,-222.6558837890625,0.0560203492641449,16,0.0,0.0,1176450050,,,,0,0.0,4,-37.99,25.200000000000003,-11.805451393127441,7.664747714996338,,,Q,153860461738940
Raw,153860461,104092470000000,18,0.0,-1384850346948301785,-0.5584621429443359,116.83069169521332,-10.224626444525692,12.950408662284305,12,3,0.0,81935,567239323701956,9,26.7,246.88107299804688,0.03487201780080795,16,0.0,0.0,1176450050,,,,0,0.0,6,-37.99,21.4,-1296.7569580078125,241.21847534179688,,,Q,153860461755607
Raw,153860461,104092470000000,18,0.0,-1384850346948301785,-0.5584621429443359,116.83069169521332,-10.224626444525692,12.950408662284305,12,11,0.0,81935,567239330133325,11,25.1,519.6154174804688,0.1498515009880066,16,0.0,0.0,1176450050,,,,0,0.0,6,-37.99,19.8,-1296.7569580078125,241.21847534179688,,,Q,153860461773159
Raw,153860461,104092470000000,18,0.0,-1384850346948301785,-0.5584621429443359,116.83069169521332,-10.224626444525692,12.950408662284305,12,15,0.0,81935,567239325059585,6,31.6,-538.1683349609375,0.034584734588861465,16,0.0,0.0,1176450050,,,,0,0.0,6,-37.99,26.3,-1296.7569580078125,241.21847534179688,,,Q,153860461793732
Raw,153860461,104092470000000,18,0.0,-1384850346948301785,-0.5584621429443359,116.83069169521332,-10.224626444525692,12.950408662284305,12,25,0.0,81935,567239335363938,2,39.5,166.9434814453125,0.06189966946840286,16,0.0,0.0,1176450050,,,,0,0.0,6,-37.99,34.2,-1296.7569580078125,241.21847534179688,,,Q,153860461810919
Raw,153860461,104092470000000,18,0.0,-1384850346948301785,-0.5584621429443359,116.83069169521332,-10.224626444525692,12.950408662284305,12,30,0.0,81935,567239328058945,27,18.0,-425.0786437988281,2.883500099182129,16,0.0,0.0,1176450050,,,,0,0.0,6,-37.99,12.7,-1296.7569580078125,241.21847534179688,,,Q,153860461827742
Raw,153860461,104092470000000,18,0.0,-1384850346948301785,-0.5584621429443359,116.83069169521332,-10.224626444525692,12.950408662284305,12,34,0.0,81935,567239338383388,27,17.7,-280.425537109375,3.0185000896453857,16,0.0,0.0,1176450050,,,,0,0.0,6,-37.99,12.399999999999999,-1296.7569580078125,241.21847534179688,,,Q,153860461844721
Raw,153860462,104092470000000,18,0.0,-1384850346948301785,-0.5584621429443359,116.83069169521332,-10.224626444525692,12.950408662284305,12,27,0.0,16399,567225343955629,20,19.1,-79.14958953857422,1.996000051498413,16,0.0,0.0,1176450050,,,,0,0.0,5,-37.99,14.600000000000001,-1454.72802734375,246.18727111816406,,,Q,153860462032377
Raw,153860462,104092470000000,18,0.0,-1384850346948301785,-0.5584621429443359,116.83069169521332,-10.224626444525692,12.950408662284305,12,30,0.0,16399,567225332519932,9,25.6,-392.8049011230469,0.8428561091423035,16,0.0,0.0,1176450050,,,,0,0.0,5,-37.99,21.1,-1454.72802734375,246.18727111816406,,,Q,153860462070294
Raw,153860462,104092470000000,18,0.0,-1384850346948301785,-0.5584621429443359,116.83069169521332,-10.224626444525692,12.950408662284305,12,38,0.0,16399,567225292388711,3,36.3,-314.7117614746094,0.06073791906237602,16,0.0,0.0,1176450050,,,,0,0.0,5,-37.99,31.799999999999997,-1454.72802734375,246.18727111816406,,,Q,153860462090971
Raw,153860462,104092470000000,18,0.0,-1384850346948301785,-0.5584621429443359,116.83069169521332,-10.224626444525692,12.950408662284305,12,39,0.0,16399,567225289864042,27,16.8,318.14007568359375,2.9149999618530273,16,0.0,0.0,1176450050,,,,0,0.0,5,-37.99,12.3,-1454.72802734375,246.18727111816406,,,Q,153860462201492
Raw,153860462,104092470000000,18,0.0,-1384850346948301785,-0.5584621429443359,116.83069169521332,-10.224626444525692,12.950408662284305,12,46,0.0,16399,567225337710715,14,21.5,-504.1640319824219,1.6148402690887451,16,0.0,0.0,1176450050,,,,0,0.0,5,-37.99,17.0,-1454.72802734375,246.18727111816406,,,Q,153860462217325
Raw,153860462,104092470000000,18,0.0,-1384850346948301785,-0.5584621429443359,116.83069169521332,-10.224626444525692,12.950408662284305,12,28,0.0,16399,567225343005061,14,24.7,323.22332763671875,1.031000018119812,16,0.0,0.0,1575420030,,,,0,0.0,5,-61.04,17.7,-1493.577880859375,244.45143127441406,,,P,153860462233107
Raw,153860462,104092470000000,18,0.0,-1384850346948301785,-0.5584621429443359,116.83069169521332,-10.224626444525692,12.950408662284305,12,30,0.0,16399,567225332519999,5,35.5,-392.8801574707031,0.6327881217002869,16,0.0,0.0,1575420030,,,,0,0.0,5,-61.04,28.5,-1493.577880859375,244.45143127441406,,,P,153860462249200
Raw,153860462,104092470000000,18,0.0,-1384850346948301785,-0.5584621429443359,116.83069169521332,-10.224626444525692,12.950408662284305,12,38,0.0,16399,567225292388738,3,38.5,-314.8409729003906,0.057891953736543655,16,0.0,0.0,1575420030,,,,0,0.0,5,-61.04,31.5,-1493.577880859375,244.45143127441406,,,P,153860462441023
Raw,153860462,104092470000000,18,0.0,-1384850346948301785,-0.5584621429443359,116.83069169521332,-10.224626444525692,12.950408662284305,12,39,0.0,16399,567225289864047,18,22.2,317.7999572753906,2.575000047683716,16,0.0,0.0,1575420030,,,,0,0.0,5,-61.04,15.2,-1493.577880859375,244.45143127441406,,,P,153860462474825
Raw,153860462,104092470000000,18,0.0,-1384850346948301785,-0.5584621429443359,116.83069169521332,-10.224626444525692,12.950408662284305,12,40,0.0,16399,567225294488767,12,25.1,-19.248205184936523,1.0325000286102295,16,0.0,0.0,1575420030,,,,0,0.0,5,-61.04,18.1,-1493.577880859375,244.45143127441406,,,P,153860462493523
Raw,153860462,104092470000000,18,0.0,-1384850346948301785,-0.5584621429443359,116.83069169521332,-10.224626444525692,12.950408662284305,12,46,0.0,16399,567225337710838,7,31.6,-504.1741027832031,0.10069143027067184,16,0.0,0.0,1575420030,,,,0,0.0,5,-61.04,24.6,-1493.577880859375,244.45143127441406,,,P,153860462511440
Raw,153861451,104093470000000,18,0.0,-1384850346948301797,-0.8966236114501953,118.24506509583443,-10.667315194162509,13.349996483368116,12,2,0.0,16399,567240343867027,61,21.7,514.4589233398438,1.0989999771118164,16,0.0,0.0,1575420030,,,,0,0.0,1,-56.67,18.099999999999998,0.0,0.0,,,C,153861451912325
Raw,153861451,104093470000000,18,0.0,-1384850346948301797,-0.8966236114501953,118.24506509583443,-10.667315194162509,13.349996483368116,12,7,0.0,16399,567240348911928,24,29.1,319.6114196777344,1.2492653131484985,16,0.0,0.0,1575420030,,,,0,0.0,1,-56.67,25.5,0.0,0.0,,,C,153861451966387
Raw,153861451,104093470000000,18,0.0,-1384850346948301797,-0.8966236114501953,118.24506509583443,-10.667315194162509,13.349996483368116,12,8,0.0,16399,567240338343033,17,32.4,389.9981994628906,4.599342346191406,16,0.0,0.0,1575420030,,,,0,0.0,1,-56.67,28.799999999999997,0.0,0.0,,,C,153861451985346
Raw,153861452,104093470000000,18,0.0,-1384850346948301797,-0.8966236114501953,118.24506509583443,-10.667315194162509,13.349996483368116,12,14,0.0,16399,567240345331940,70,21.3,-456.7048034667969,1.7739999294281006,16,0.0,0.0,1575420030,,,,0,0.0,1,-56.67,17.7,0.0,0.0,,,C,153861452001544
Raw,153861452,104093470000000,18,0.0,-1384850346948301797,-0.8966236114501953,118.24506509583443,-10.667315194162509,13.349996483368116,12,17,0.0,16399,567240343959252,31,27.0,-126.75462341308594,1.3610000610351562,16,0.0,0.0,1575420030,,,,0,0.0,1,-56.67,23.4,0.0,0.0,,,C,153861452017064
Raw,153861452,104093470000000,18,0.0,-1384850346948301797,-0.8966236114501953,118.24506509583443,-10.667315194162509,13.349996483368116,12,19,0.0,16399,567240337907512,80,20.1,-341.8340148925781,1.8819999694824219,16,0.0,0.0,1575420030,,,,0,0.0,1,-56.67,16.5,0.0,0.0,,,C,153861452035814
Raw,153861452,104093470000000,18,0.0,-1384850346948301797,-0.8966236114501953,118.24506509583443,-10.667315194162509,13.349996483368116,12,21,0.0,16399,567240341857699,14,33.6,637.6170043945312,0.44200000166893005,16,0.0,0.0,1575420030,,,,0,0.0,1,-56.67,30.0,0.0,0.0,,,C,153861452049721
Raw,153861452,104093470000000,18,0.0,-1384850346948301797,-0.8966236114501953,118.24506509583443,-10.667315194162509,13.349996483368116,12,22,0.0,16399,567240339558780,14,33.9,-456.9858703613281,8.046830177307129,16,0.0,0.0,1575420030,,,,0,0.0,1,-56.67,30.299999999999997,0.0,0.0,,,C,153861452066804
Raw,153861452,104093470000000,18,0.0,-1384850346948301797,-0.8966236114501953,118.24506509583443,-10.667315194162509,13.349996483368116,12,194,0.0,16399,567240291067141,21,30.2,-223.34307861328125,1.212852954864502,16,0.0,0.0,1575420030,,,,0,0.0,4,-56.67,26.599999999999998,0.0,0.0,,,C,153861452081127
Raw,153861452,104093470000000,18,0.0,-1384850346948301797,-0.8966236114501953,118.24506509583443,-10.667315194162509,13.349996483368116,12,195,0.0,16399,567240288802289,70,21.3,152.72970581054688,1.091499924659729,16,0.0,0.0,1575420030,,,,0,0.0,4,-56.67,17.7,0.0,0.0,,,C,153861452094929
Raw,153861452,104093470000000,18,0.0,-1384850346948301797,-0.8966236114501953,118.24506509583443,-10.667315194162509,13.349996483368116,12,14,0.0,49359,59622353919418,31,27.4,53.21201705932617,0.6739999651908875,16,0.0,0.0,1598062460,,,,0,0.0,3,-56.9,23.4,3870.01416015625,23.63829803466797,,,C,153861452108939
Raw,153861452,104093470000000,18,0.0,-1384850346948301797,-0.8966236114501953,118.24506509583443,-10.667315194162509,13.349996483368116,12,18,0.0,49359,59622346526734,16,33.9,-431.56298828125,0.04868116229772568,16,0.0,0.0,1600312450,,,,0,0.0,3,-56.9,29.9,3870.01416015625,23.63829803466797,,,C,153861452124096
Raw,153861452,104093470000000,18,0.0,-1384850346948301797,-0.8966236114501953,118.24506509583443,-10.667315194162509,13.349996483368116,12,15,0.0,49359,59622348877222,61,22.6,-604.5908203125,1.0115000009536743,16,0.0,0.0,1602000000,,,,0,0.0,3,-56.9,18.6,3870.01416015625,23.63829803466797,,,C,153861452140762
Raw,153861452,104093470000000,18,0.0,-1384850346948301797,-0.8966236114501953,118.24506509583443,-10.667315194162509,13.349996483368116,12,24,0.0,49359,59622345748767,21,30.1,627.487548828125,0.6403442025184631,16,0.0,0.0,1603124990,,,,0,0.0,3,-56.9,26.1,3870.01416015625,23.63829803466797,,,C,153861452155814
Raw,153861452,104093470000000,18,0.0,-1384850346948301797,-0.8966236114501953,118.24506509583443,-10.667315194162509,13.349996483368116,12,17,0.0,49359,59622352712297,19,31.0,130.38711547851562,3.4144768714904785,16,0.0,0.0,1604249980,,,,0,0.0,3,-56.9,27.0,3870.01416015625,23.63829803466797,,,C,153861452170033
Raw,153861452,104093470000000,18,0.0,-1384850346948301797,-0.8966236114501953,118.24506509583443,-10.667315194162509,13.349996483368116,12,60,0.0,16399,567226293175170,31,27.3,-5.233076095581055,4.992599964141846,16,0.0,0.0,1561097980,,,,0,0.0,5,-59.26,23.0,-1499.5316162109375,25.5240535736084,,,I,153861452265502
Raw,153861452,104093470000000,18,0.0,-1384850346948301797,-0.8966236114501953,118.24506509583443,-10.667315194162509,13.349996483368116,12,59,0.0,16399,567226294468599,14,34.9,-3.5239248275756836,1.4881000518798828,16,0.0,0.0,1561097980,,,,0,0.0,5,-59.26,30.599999999999998,-1499.5316162109375,25.5240535736084,,,I,153861452292794
Raw,153861452,104093470000000,18,0.0,-1384850346948301797,-0.8966236114501953,118.24506509583443,-10.667315194162509,13.349996483368116,12,46,0.0,16399,567226337712517,35,26.7,-504.4973449707031,1.4420000314712524,16,0.0,0.0,1561097980,,,,0,0.0,5,-59.26,22.4,-1499.5316162109375,25.5240535736084,,,I,153861452310085
Raw,153861452,104093470000000,18,0.0,-1384850346948301797,-0.8966236114501953,118.24506509583443,-10.667315194162509,13.349996483368116,12,43,0.0,16399,567226328534310,14,34.6,475.81689453125,0.6172012090682983,16,0.0,0.0,1561097980,,,,0,0.0,5,-59.26,30.3,-1499.5316162109375,25.5240535736084,,,I,153861452326856
Raw,153861452,104093470000000,18,0.0,-1384850346948301797,-0.8966236114501953,118.24506509583443,-10.667315194162509,13.349996483368116,12,40,0.0,16399,567226294488917,80,20.9,-19.808874130249023,2.627500057220459,16,0.0,0.0,1561097980,,,,0,0.0,5,-59.26,16.599999999999998,-1499.5316162109375,25.5240535736084,,,I,153861452340658
Raw,153861452,104093470000000,18,0.0,-1384850346948301797,-0.8966236114501953,118.24506509583443,-10.667315194162509,13.349996483368116,12,38,0.0,16399,567226292389805,14,34.8,-315.5633544921875,2.915675163269043,16,0.0,0.0,1561097980,,,,0,0.0,5,-59.26,30.499999999999996,-1499.5316162109375,25.5240535736084,,,I,153861452354356
Raw,153861452,104093470000000,18,0.0,-1384850346948301797,-0.8966236114501953,118.24506509583443,-10.667315194162509,13.349996483368116,12,30,0.0,16399,567226332521337,24,30.2,-393.8878173828125,0.6783190369606018,16,0.0,0.0,1561097980,,,,0,0.0,5,-59.26,25.9,-1499.5316162109375,25.5240535736084,,,I,153861452367533
