# 
# Header Description:
# 
# Version: v2.0.0.1 Platform: 13 Manufacturer: HONOR Model: REA-AN00
# 
# Raw,ElapsedRealtimeMillis,TimeNanos,LeapSecond,TimeUncertaintyNanos,FullBiasNanos,BiasNanos,BiasUncertaintyNanos,DriftNanosPerSecond,DriftUncertaintyNanosPerSecond,HardwareClockDiscontinuityCount,Svid,TimeOffsetNanos,State,ReceivedSvTimeNanos,ReceivedSvTimeUncertaintyNanos,Cn0DbHz,PseudorangeRateMetersPerSecond,PseudorangeRateUncertaintyMetersPerSecond,AccumulatedDeltaRangeState,AccumulatedDeltaRangeMeters,AccumulatedDeltaRangeUncertaintyMeters,CarrierFrequencyHz,CarrierCycles,CarrierPhase,CarrierPhaseUncertainty,MultipathIndicator,SnrInDb,ConstellationType,AgcDb,CarrierFrequencyHz
# 
# Fix,Provider,Latitude,Longitude,Altitude,Speed,Accuracy,(UTC)TimeInMs
# 
# Nav,Svid,Type,Status,MessageId,Sub-messageId,Data(Bytes)
# 
Raw,72412436,41859945000000,18,0.0,-1385524706471191001,-0.415252685546875,1014.282344840467,-27.09137510140758,21.732179114626746,8,3,0.0,16399,574566339655249,35,25.9,482.984375,0.8149999976158142,16,0.0,0.0,1.57542003E9,,,,0,0.0,1,-58.22,1.57542003E9
Raw,72412437,41859945000000,18,0.0,-1385524706471191001,-0.415252685546875,1014.282344840467,-27.09137510140758,21.732179114626746,8,9,0.0,16399,574566333735118,61,22.3,-357.20025634765625,1.0640000104904175,16,0.0,0.0,1.57542003E9,,,,0,0.0,1,-58.22,1.57542003E9
Raw,72412438,41859945000000,18,0.0,-1385524706471191001,-0.415252685546875,1014.282344840467,-27.09137510140758,21.732179114626746,8,17,0.0,16399,574566344514456,70,21.0,-92.13067626953125,1.097499966621399,16,0.0,0.0,1.57542003E9,,,,0,0.0,1,-58.22,1.57542003E9
Raw,72412438,41859945000000,18,0.0,-1385524706471191001,-0.415252685546875,1014.282344840467,-27.09137510140758,21.732179114626746,8,2,0.0,49359,66948342623970,31,27.0,-471.8533935546875,0.6904999613761902,16,0.0,0.0,1.59975002E9,,,,0,0.0,3,-60.07,1.59975002E9
Raw,72412439,41859945000000,18,0.0,-1385524706471191001,-0.415252685546875,1014.282344840467,-27.09137510140758,21.732179114626746,8,27,0.0,16399,574552339551072,46,25.2,119.07408142089844,1.0099999904632568,16,0.0,0.0,1.56109798E9,,,,0,0.0,5,-62.43,1.56109798E9
Raw,72413429,41860945000000,18,0.0,-1385524706471190958,-0.9171409606933594,844.6908905170858,-26.1461385592096,18.661822485125494,8,3,0.0,16399,574567339653655,24,29.1,482.3269348144531,0.6918843388557434,16,0.0,0.0,1.57542003E9,,,,0,0.0,1,-57.09,1.57542003E9
Raw,72413430,41860945000000,18,0.0,-1385524706471190958,-0.9171409606933594,844.6908905170858,-26.1461385592096,18.661822485125494,8,9,0.0,16399,574567333736439,46,24.4,-357.1336364746094,0.8539999723434448,16,0.0,0.0,1.57542003E9,,,,0,0.0,1,-57.09,1.57542003E9
Raw,72413430,41860945000000,18,0.0,-1385524706471190958,-0.9171409606933594,844.6908905170858,-26.1461385592096,18.661822485125494,8,196,0.0,16399,574567293322480,92,19.4,50.41830825805664,3.0160000324249268,16,0.0,0.0,1.57542003E9,,,,0,0.0,4,-57.09,1.57542003E9
Raw,72413430,41860945000000,18,0.0,-1385524706471190958,-0.9171409606933594,844.6908905170858,-26.1461385592096,18.661822485125494,8,2,0.0,49359,66949342625454,35,26.6,-472.8372497558594,0.750499963760376,16,0.0,0.0,1.59975002E9,,,,0,0.0,3,-58.54,1.59975002E9
Raw,72413431,41860945000000,18,0.0,-1385524706471190958,-0.9171409606933594,844.6908905170858,-26.1461385592096,18.661822485125494,8,27,0.0,16399,574553339550621,40,25.6,118.01786804199219,0.8149999976158142,16,0.0,0.0,1.56109798E9,,,,0,0.0,5,-61.45,1.56109798E9
Raw,72414421,41861945000000,18,0.0,-1385524706471191010,-0.4155540466308594,681.3618238084018,-27.567406709013866,18.87124324525287,8,3,0.0,16399,574568339651988,31,27.0,482.1280517578125,0.6949999928474426,16,0.0,0.0,1.57542003E9,,,,0,0.0,1,-57.1,1.57542003E9
Raw,72414421,41861945000000,18,0.0,-1385524706471191010,-0.4155540466308594,681.3618238084018,-27.567406709013866,18.87124324525287,8,17,0.0,16399,574568344515043,70,21.3,-93.19632720947266,1.7725000381469727,16,0.0,0.0,1.57542003E9,,,,0,0.0,1,-57.1,1.57542003E9
Raw,72414422,41861945000000,18,0.0,-1385524706471191010,-0.4155540466308594,681.3618238084018,-27.567406709013866,18.87124324525287,8,2,0.0,49359,66950342627041,40,25.4,-472.1719665527344,0.8104999661445618,16,0.0,0.0,1.59975002E9,,,,0,0.0,3,-58.07,1.59975002E9
Raw,72414422,41861945000000,18,0.0,-1385524706471191010,-0.4155540466308594,681.3618238084018,-27.567406709013866,18.87124324525287,8,27,0.0,16399,574554339550273,46,24.6,118.40194702148438,0.875,16,0.0,0.0,1.56109798E9,,,,0,0.0,5,-61.55,1.56109798E9
Raw,72414423,41861945000000,18,0.0,-1385524706471191010,-0.4155540466308594,681.3618238084018,-27.567406709013866,18.87124324525287,8,32,0.0,16399,574554336277775,9,28.3,-476.2669982910156,0.8344999551773071,16,0.0,0.0,1.57542003E9,,,,0,0.0,5,-60.68,1.57542003E9
Raw,72415428,41862945000000,18,0.0,-1385524706471191055,-0.6554794311523438,508.2839052192867,-28.88581986413924,16.989128540794397,8,3,0.0,16399,574569339650419,46,24.5,484.8492736816406,0.875,16,0.0,0.0,1.57542003E9,,,,0,0.0,1,-57.64,1.57542003E9
Raw,72415429,41862945000000,18,0.0,-1385524706471191055,-0.6554794311523438,508.2839052192867,-28.88581986413924,16.989128540794397,8,9,0.0,16399,574569333738862,92,19.0,-357.3905334472656,1.9660000801086426,16,0.0,0.0,1.57542003E9,,,,0,0.0,1,-57.64,1.57542003E9
Raw,72415429,41862945000000,18,0.0,-1385524706471191055,-0.6554794311523438,508.2839052192867,-28.88581986413924,16.989128540794397,8,17,0.0,16399,574569344515477,53,22.8,-91.00794982910156,1.0175000429153442,16,0.0,0.0,1.57542003E9,,,,0,0.0,1,-57.64,1.57542003E9
Raw,72415430,41862945000000,18,0.0,-1385524706471191055,-0.6554794311523438,508.2839052192867,-28.88581986413924,16.989128540794397,8,2,0.0,49359,66951342628676,40,25.5,-470.0730895996094,0.8104999661445618,16,0.0,0.0,1.59975002E9,,,,0,0.0,3,-59.17,1.59975002E9
Raw,72415430,41862945000000,18,0.0,-1385524706471191055,-0.6554794311523438,508.2839052192867,-28.88581986413924,16.989128540794397,8,27,0.0,16399,574555339549848,40,25.5,120.30313873291016,0.8149999976158142,16,0.0,0.0,1.56109798E9,,,,0,0.0,5,-62.01,1.56109798E9
Raw,72415430,41862945000000,18,0.0,-1385524706471191055,-0.6554794311523438,508.2839052192867,-28.88581986413924,16.989128540794397,8,27,0.0,16399,574555339549879,18,22.9,119.54248809814453,1.7949999570846558,16,0.0,0.0,1.57542003E9,,,,0,0.0,5,-61.21,1.57542003E9
Raw,72415431,41862945000000,18,0.0,-1385524706471191055,-0.6554794311523438,508.2839052192867,-28.88581986413924,16.989128540794397,8,32,0.0,16399,574555336279377,11,26.8,-473.9739685058594,0.9154999852180481,16,0.0,0.0,1.57542003E9,,,,0,0.0,5,-61.21,1.57542003E9
Raw,72416442,41863945000000,18,0.0,-1385524706471191095,-0.1435565948486328,424.4946758262813,-23.580653526853464,16.561196984128085,8,3,0.0,16399,574570339648832,53,22.9,484.697021484375,1.024999976158142,16,0.0,0.0,1.57542003E9,,,,0,0.0,1,-58.49,1.57542003E9
Raw,72416443,41863945000000,18,0.0,-1385524706471191095,-0.1435565948486328,424.4946758262813,-23.580653526853464,16.561196984128085,8,17,0.0,16399,574570344515720,61,22.3,-91.1697006225586,1.0175000429153442,16,0.0,0.0,1.57542003E9,,,,0,0.0,1,-58.49,1.57542003E9
Raw,72416443,41863945000000,18,0.0,-1385524706471191095,-0.1435565948486328,424.4946758262813,-23.580653526853464,16.561196984128085,8,20,0.0,16399,574570333821126,106,18.3,-681.4796752929688,2.7109999656677246,16,0.0,0.0,1.57542003E9,,,,0,0.0,1,-58.49,1.57542003E9
Raw,72416443,41863945000000,18,0.0,-1385524706471191095,-0.1435565948486328,424.4946758262813,-23.580653526853464,16.561196984128085,8,2,0.0,49359,66952342630005,46,24.3,-471.4317321777344,0.8704999685287476,16,0.0,0.0,1.59975002E9,,,,0,0.0,3,-60.14,1.59975002E9
Raw,72416444,41863945000000,18,0.0,-1385524706471191095,-0.1435565948486328,424.4946758262813,-23.580653526853464,16.561196984128085,8,27,0.0,16399,574556339549412,35,26.5,119.51578521728516,0.7549999952316284,16,0.0,0.0,1.56109798E9,,,,0,0.0,5,-62.77,1.56109798E9
Raw,72416444,41863945000000,18,0.0,-1385524706471191095,-0.1435565948486328,424.4946758262813,-23.580653526853464,16.561196984128085,8,27,0.0,16399,574556339549477,14,24.2,119.87549591064453,1.1349999904632568,16,0.0,0.0,1.57542003E9,,,,0,0.0,5,-62.05,1.57542003E9
Raw,72416445,41863945000000,18,0.0,-1385524706471191095,-0.1435565948486328,424.4946758262813,-23.580653526853464,16.561196984128085,8,32,0.0,16399,574556336280953,10,27.0,-474.0634765625,0.7006242871284485,16,0.0,0.0,1.57542003E9,,,,0,0.0,5,-62.05,1.57542003E9
Raw,72417453,41864945000000,18,0.0,-1385524706471191117,-0.4952983856201172,544.4205598905683,-24.06860318219935,15.771007992131121,8,3,0.0,16399,574571339647143,40,25.1,482.3754577636719,0.8149999976158142,16,0.0,0.0,1.57542003E9,,,,0,0.0,1,-58.28,1.57542003E9
Raw,72417454,41864945000000,18,0.0,-1385524706471191117,-0.4952983856201172,544.4205598905683,-24.06860318219935,15.771007992131121,8,2,0.0,49359,66953342631636,70,21.1,-472.0782775878906,1.1004999876022339,16,0.0,0.0,1.59975002E9,,,,0,0.0,3,-59.94,1.59975002E9
Raw,72417455,41864945000000,18,0.0,-1385524706471191117,-0.4952983856201172,544.4205598905683,-24.06860318219935,15.771007992131121,8,27,0.0,16399,574557339549095,40,25.9,118.44035339355469,0.8149999976158142,16,0.0,0.0,1.56109798E9,,,,0,0.0,5,-62.51,1.56109798E9
Raw,72417455,41864945000000,18,0.0,-1385524706471191117,-0.4952983856201172,544.4205598905683,-24.06860318219935,15.771007992131121,8,27,0.0,16399,574557339549043,14,24.9,118.1533432006836,1.0550000667572021,16,0.0,0.0,1.57542003E9,,,,0,0.0,5,-61.83,1.57542003E9
Raw,72417456,41864945000000,18,0.0,-1385524706471191117,-0.4952983856201172,544.4205598905683,-24.06860318219935,15.771007992131121,8,32,0.0,16399,574557336282537,10,27.0,-475.5552673339844,0.7006242871284485,16,0.0,0.0,1.57542003E9,,,,0,0.0,5,-61.83,1.57542003E9
Raw,72417457,41864945000000,18,0.0,-1385524706471191117,-0.4952983856201172,544.4205598905683,-24.06860318219935,15.771007992131121,8,40,0.0,16399,574557294902064,27,19.5,-123.04389190673828,3.7325000762939453,16,0.0,0.0,1.57542003E9,,,,0,0.0,5,-61.83,1.57542003E9
Raw,72418463,41865945000000,18,0.0,-1385524706471191149,-0.4135856628417969,595.4569205641747,-28.360452342374813,16.01320855285444,8,3,0.0,16399,574572339645596,40,24.6,483.40301513671875,0.875,16,0.0,0.0,1.57542003E9,,,,0,0.0,1,-56.81,1.57542003E9
Raw,72418464,41865945000000,18,0.0,-1385524706471191149,-0.4135856628417969,595.4569205641747,-28.360452342374813,16.01320855285444,8,17,0.0,16399,574572344516370,61,22.4,-92.96797943115234,1.692500114440918,16,0.0,0.0,1.57542003E9,,,,0,0.0,1,-56.81,1.57542003E9
Raw,72418464,41865945000000,18,0.0,-1385524706471191149,-0.4135856628417969,595.4569205641747,-28.360452342374813,16.01320855285444,8,20,0.0,16399,574572333825734,70,20.7,-681.5177612304688,1.8760000467300415,16,0.0,0.0,1.57542003E9,,,,0,0.0,1,-56.81,1.57542003E9
Raw,72418464,41865945000000,18,0.0,-1385524706471191149,-0.4135856628417969,595.4569205641747,-28.360452342374813,16.01320855285444,8,2,0.0,49359,66954342633326,53,23.5,-471.2818298339844,0.9404999613761902,16,0.0,0.0,1.59975002E9,,,,0,0.0,3,-58.15,1.59975002E9
Raw,72418464,41865945000000,18,0.0,-1385524706471191149,-0.4135856628417969,595.4569205641747,-28.360452342374813,16.01320855285444,8,32,0.0,16399,574558336283984,106,18.3,-475.076904296875,4.215500354766846,16,0.0,0.0,1.56109798E9,,,,0,0.0,5,-61.3,1.56109798E9
Raw,72418465,41865945000000,18,0.0,-1385524706471191149,-0.4135856628417969,595.4569205641747,-28.360452342374813,16.01320855285444,8,27,0.0,16399,574558339548650,35,27.0,118.02748107910156,0.6949999928474426,16,0.0,0.0,1.56109798E9,,,,0,0.0,5,-61.3,1.56109798E9
Raw,72418465,41865945000000,18,0.0,-1385524706471191149,-0.4135856628417969,595.4569205641747,-28.360452342374813,16.01320855285444,8,25,0.0,23567,574572333371011,139,16.4,410.49200439453125,4.517000198364258,16,0.0,0.0,1.57542003E9,,,,0,0.0,6,-60.4,1.57542003E9
Raw,72418466,41865945000000,18,0.0,-1385524706471191149,-0.4135856628417969,595.4569205641747,-28.360452342374813,16.01320855285444,8,27,0.0,16399,574558339548687,12,25.3,118.45780944824219,1.0550000667572021,16,0.0,0.0,1.57542003E9,,,,0,0.0,5,-60.4,1.57542003E9
Raw,72418466,41865945000000,18,0.0,-1385524706471191149,-0.4135856628417969,595.4569205641747,-28.360452342374813,16.01320855285444,8,32,0.0,16399,574558336284144,8,29.4,-475.50982666015625,1.8131952285766602,16,0.0,0.0,1.57542003E9,,,,0,0.0,5,-60.4,1.57542003E9
Raw,72419462,41866945000000,18,0.0,-1385524706471191197,-0.11220264434814453,607.5686542317271,-27.99460819976366,15.163408644911296,8,3,0.0,16399,574573339643912,21,29.6,483.8742370605469,2.943495988845825,16,0.0,0.0,1.57542003E9,,,,0,0.0,1,-56.1,1.57542003E9
Raw,72419462,41866945000000,18,0.0,-1385524706471191197,-0.11220264434814453,607.5686542317271,-27.99460819976366,15.163408644911296,8,9,0.0,16399,574573333743546,40,24.9,-356.35345458984375,3.055999994277954,16,0.0,0.0,1.57542003E9,,,,0,0.0,1,-56.1,1.57542003E9
Raw,72419462,41866945000000,18,0.0,-1385524706471191197,-0.11220264434814453,607.5686542317271,-27.99460819976366,15.163408644911296,8,17,0.0,16399,574573344516481,46,23.7,-91.1697006225586,0.9375,16,0.0,0.0,1.57542003E9,,,,0,0.0,1,-56.1,1.57542003E9
Raw,72419463,41866945000000,18,0.0,-1385524706471191197,-0.11220264434814453,607.5686542317271,-27.99460819976366,15.163408644911296,8,195,0.0,16399,574573283516415,122,17.4,30.427959442138672,5.065999984741211,16,0.0,0.0,1.57542003E9,,,,0,0.0,4,-56.1,1.57542003E9
Raw,72419463,41866945000000,18,0.0,-1385524706471191197,-0.11220264434814453,607.5686542317271,-27.99460819976366,15.163408644911296,8,2,0.0,49359,66955342634987,61,22.6,-471.9658203125,1.0205000638961792,16,0.0,0.0,1.59975002E9,,,,0,0.0,3,-57.22,1.59975002E9
Raw,72419463,41866945000000,18,0.0,-1385524706471191197,-0.11220264434814453,607.5686542317271,-27.99460819976366,15.163408644911296,8,27,0.0,16399,574559339548295,31,27.8,119.70782470703125,0.6949999928474426,16,0.0,0.0,1.56109798E9,,,,0,0.0,5,-60.89,1.56109798E9
Raw,72419463,41866945000000,18,0.0,-1385524706471191197,-0.11220264434814453,607.5686542317271,-27.99460819976366,15.163408644911296,8,27,0.0,16399,574559339548282,14,24.3,119.39025115966797,1.1349999904632568,16,0.0,0.0,1.57542003E9,,,,0,0.0,5,-59.77,1.57542003E9
Raw,72419464,41866945000000,18,0.0,-1385524706471191197,-0.11220264434814453,607.5686542317271,-27.99460819976366,15.163408644911296,8,32,0.0,16399,574559336285757,8,30.2,-474.69189453125,0.09870637953281403,16,0.0,0.0,1.57542003E9,,,,0,0.0,5,-59.77,1.57542003E9
Raw,72419464,41866945000000,18,0.0,-1385524706471191197,-0.11220264434814453,607.5686542317271,-27.99460819976366,15.163408644911296,8,40,0.0,16399,574559294902917,16,23.1,-123.34835815429688,1.9524999856948853,16,0.0,0.0,1.57542003E9,,,,0,0.0,5,-59.77,1.57542003E9
Raw,72420491,41867945000000,18,0.0,-1385524706471191138,-0.08870315551757812,519.2076205275953,-26.419035290135316,16.757416116571132,8,3,0.0,16399,574574339642349,12,35.7,484.284423828125,2.906902551651001,16,0.0,0.0,1.57542003E9,,,,0,0.0,1,-53.91,1.57542003E9
Raw,72420491,41867945000000,18,0.0,-1385524706471191138,-0.08870315551757812,519.2076205275953,-26.419035290135316,16.757416116571132,8,6,0.0,16399,574574345335607,70,21.1,-118.06771087646484,5.419000148773193,16,0.0,0.0,1.57542003E9,,,,0,0.0,1,-53.91,1.57542003E9
Raw,72420491,41867945000000,18,0.0,-1385524706471191138,-0.08870315551757812,519.2076205275953,-26.419035290135316,16.757416116571132,8,9,0.0,16399,574574333744726,21,30.0,-356.2324523925781,4.064258575439453,16,0.0,0.0,1.57542003E9,,,,0,0.0,1,-53.91,1.57542003E9
Raw,72420492,41867945000000,18,0.0,-1385524706471191138,-0.08870315551757812,519.2076205275953,-26.419035290135316,16.757416116571132,8,17,0.0,16399,574574344516911,17,31.6,-91.3614273071289,2.9076991081237793,16,0.0,0.0,1.57542003E9,,,,0,0.0,1,-53.91,1.57542003E9
Raw,72420492,41867945000000,18,0.0,-1385524706471191138,-0.08870315551757812,519.2076205275953,-26.419035290135316,16.757416116571132,8,20,0.0,16399,574574333830291,80,19.9,-680.1666870117188,1.9660000801086426,16,0.0,0.0,1.57542003E9,,,,0,0.0,1,-53.91,1.57542003E9
Raw,72420492,41867945000000,18,0.0,-1385524706471191138,-0.08870315551757812,519.2076205275953,-26.419035290135316,16.757416116571132,8,30,0.0,16399,574574335010328,106,18.0,475.9625244140625,5.714000225067139,16,0.0,0.0,1.57542003E9,,,,0,0.0,1,-53.91,1.57542003E9
Raw,72420492,41867945000000,18,0.0,-1385524706471191138,-0.08870315551757812,519.2076205275953,-26.419035290135316,16.757416116571132,8,195,0.0,16399,574574283516391,24,29.2,30.717374801635742,1.8276463747024536,16,0.0,0.0,1.57542003E9,,,,0,0.0,4,-53.91,1.57542003E9
Raw,72420493,41867945000000,18,0.0,-1385524706471191138,-0.08870315551757812,519.2076205275953,-26.419035290135316,16.757416116571132,8,196,0.0,16399,574574293321320,70,21.4,50.3612174987793,5.8510003089904785,16,0.0,0.0,1.57542003E9,,,,0,0.0,4,-53.91,1.57542003E9
Raw,72420493,41867945000000,18,0.0,-1385524706471191138,-0.08870315551757812,519.2076205275953,-26.419035290135316,16.757416116571132,8,2,0.0,49359,66956342636440,17,32.8,-470.84515380859375,1.7426503896713257,16,0.0,0.0,1.59975002E9,,,,0,0.0,3,-54.39,1.59975002E9
Raw,72420493,41867945000000,18,0.0,-1385524706471191138,-0.08870315551757812,519.2076205275953,-26.419035290135316,16.757416116571132,8,15,0.0,49359,66956349327461,106,18.0,-103.67354583740234,5.705000400543213,16,0.0,0.0,1.602E9,,,,0,0.0,3,-54.39,1.602E9
Raw,72420494,41867945000000,18,0.0,-1385524706471191138,-0.08870315551757812,519.2076205275953,-26.419035290135316,16.757416116571132,8,40,0.0,16399,574560294903287,80,20.7,-122.62681579589844,5.522500514984131,16,0.0,0.0,1.56109798E9,,,,0,0.0,5,-59.62,1.56109798E9
Raw,72420494,41867945000000,18,0.0,-1385524706471191138,-0.08870315551757812,519.2076205275953,-26.419035290135316,16.757416116571132,8,32,0.0,16399,574560336287422,19,31.4,-474.2127380371094,1.2105000019073486,16,0.0,0.0,1.56109798E9,,,,0,0.0,5,-59.62,1.56109798E9
Raw,72420494,41867945000000,18,0.0,-1385524706471191138,-0.08870315551757812,519.2076205275953,-26.419035290135316,16.757416116571132,8,27,0.0,16399,574560339547869,14,34.3,119.55027770996094,0.05458277091383934,16,0.0,0.0,1.56109798E9,,,,0,0.0,5,-59.62,1.56109798E9
Raw,72420494,41867945000000,18,0.0,-1385524706471191138,-0.08870315551757812,519.2076205275953,-26.419035290135316,16.757416116571132,8,9,0.0,16399,574560284215102,139,16.5,280.3776550292969,5.9375,16,0.0,0.0,1.56109798E9,,,,0,0.0,5,-59.62,1.56109798E9
Raw,72420494,41867945000000,18,0.0,-1385524706471191138,-0.08870315551757812,519.2076205275953,-26.419035290135316,16.757416116571132,8,4,0.0,16399,574560288339482,53,23.7,-19.40559196472168,11.220800399780273,16,0.0,0.0,1.56109798E9,,,,0,0.0,5,-59.62,1.56109798E9
Raw,72420495,41867945000000,18,0.0,-1385524706471191138,-0.08870315551757812,519.2076205275953,-26.419035290135316,16.757416116571132,8,25,0.0,23567,574574333368353,46,25.0,411.8906555175781,1.6069999933242798,16,0.0,0.0,1.57542003E9,,,,0,0.0,6,-57.7,1.57542003E9
Raw,72420495,41867945000000,18,0.0,-1385524706471191138,-0.08870315551757812,519.2076205275953,-26.419035290135316,16.757416116571132,8,36,0.0,23567,574574334167093,106,18.6,283.1759948730469,5.778500556945801,16,0.0,0.0,1.57542003E9,,,,0,0.0,6,-57.7,1.57542003E9
Raw,72420495,41867945000000,18,0.0,-1385524706471191138,-0.08870315551757812,519.2076205275953,-26.419035290135316,16.757416116571132,8,27,0.0,16399,574560339547881,5,35.5,119.66297912597656,0.6582881212234497,16,0.0,0.0,1.57542003E9,,,,0,0.0,5,-57.7,1.57542003E9
Raw,72420495,41867945000000,18,0.0,-1385524706471191138,-0.08870315551757812,519.2076205275953,-26.419035290135316,16.757416116571132,8,32,0.0,16399,574560336287389,5,35.4,-473.9642333984375,1.8105502128601074,16,0.0,0.0,1.57542003E9,,,,0,0.0,5,-57.7,1.57542003E9
Raw,72420495,41867945000000,18,0.0,-1385524706471191138,-0.08870315551757812,519.2076205275953,-26.419035290135316,16.757416116571132,8,40,0.0,16399,574560294903287,8,29.5,-122.74825286865234,0.09755223244428635,16,0.0,0.0,1.57542003E9,,,,0,0.0,5,-57.7,1.57542003E9
Raw,72420496,41867945000000,18,0.0,-1385524706471191138,-0.08870315551757812,519.2076205275953,-26.419035290135316,16.757416116571132,8,41,0.0,16399,574560335244390,34,17.7,-32.69245147705078,6.144000053405762,16,0.0,0.0,1.57542003E9,,,,0,0.0,5,-57.7,1.57542003E9
Raw,72420496,41867945000000,18,0.0,-1385524706471191138,-0.08870315551757812,519.2076205275953,-26.419035290135316,16.757416116571132,8,46,0.0,16399,574560340043330,27,19.6,263.3188781738281,6.006500244140625,16,0.0,0.0,1.57542003E9,,,,0,0.0,5,-57.7,1.57542003E9
Raw,72421484,41868945000000,18,0.0,-1385524706471191089,-0.630126953125,420.682190451771,-25.51680901470986,16.51267225432164,8,3,0.0,16399,574575339640722,11,37.4,484.6780090332031,0.051698338240385056,16,0.0,0.0,1.57542003E9,,,,0,0.0,1,-54.01,1.57542003E9
Raw,72421484,41868945000000,18,0.0,-1385524706471191089,-0.630126953125,420.682190451771,-25.51680901470986,16.51267225432164,8,6,0.0,16399,574575345336125,13,34.8,-117.21663665771484,0.6152729988098145,16,0.0,0.0,1.57542003E9,,,,0,0.0,1,-54.01,1.57542003E9
Raw,72421484,41868945000000,18,0.0,-1385524706471191089,-0.630126953125,420.682190451771,-25.51680901470986,16.51267225432164,8,9,0.0,16399,574575333745953,21,30.4,-356.07843017578125,0.6389720439910889,16,0.0,0.0,1.57542003E9,,,,0,0.0,1,-54.01,1.57542003E9
Raw,72421484,41868945000000,18,0.0,-1385524706471191089,-0.630126953125,420.682190451771,-25.51680901470986,16.51267225432164,8,17,0.0,16399,574575344517221,17,32.1,-90.72480010986328,1.7659374475479126,16,0.0,0.0,1.57542003E9,,,,0,0.0,1,-54.01,1.57542003E9
Raw,72421485,41868945000000,18,0.0,-1385524706471191089,-0.630126953125,420.682190451771,-25.51680901470986,16.51267225432164,8,30,0.0,16399,574575335008804,53,22.9,477.48486328125,1.0010000467300415,16,0.0,0.0,1.57542003E9,,,,0,0.0,1,-54.01,1.57542003E9
Raw,72421485,41868945000000,18,0.0,-1385524706471191089,-0.630126953125,420.682190451771,-25.51680901470986,16.51267225432164,8,194,0.0,16399,574575294823966,92,18.9,-141.88296508789062,6.46250057220459,16,0.0,0.0,1.57542003E9,,,,0,0.0,4,-54.01,1.57542003E9
Raw,72421485,41868945000000,18,0.0,-1385524706471191089,-0.630126953125,420.682190451771,-25.51680901470986,16.51267225432164,8,195,0.0,16399,574575283516308,19,31.1,30.945018768310547,1.2064707279205322,16,0.0,0.0,1.57542003E9,,,,0,0.0,4,-54.01,1.57542003E9
Raw,72421485,41868945000000,18,0.0,-1385524706471191089,-0.630126953125,420.682190451771,-25.51680901470986,16.51267225432164,8,196,0.0,16399,574575293321217,21,30.5,50.44179916381836,0.6389720439910889,16,0.0,0.0,1.57542003E9,,,,0,0.0,4,-54.01,1.57542003E9
Raw,72421485,41868945000000,18,0.0,-1385524706471191089,-0.630126953125,420.682190451771,-25.51680901470986,16.51267225432164,8,2,0.0,49359,66957342638148,11,37.0,-470.6036376953125,0.609295129776001,16,0.0,0.0,1.59975002E9,,,,0,0.0,3,-54.64,1.59975002E9
Raw,72421486,41868945000000,18,0.0,-1385524706471191089,-0.630126953125,420.682190451771,-25.51680901470986,16.51267225432164,8,15,0.0,49359,66957349327954,46,24.8,-103.18699645996094,0.8600000143051147,16,0.0,0.0,1.602E9,,,,0,0.0,3,-54.64,1.602E9
Raw,72421486,41868945000000,18,0.0,-1385524706471191089,-0.630126953125,420.682190451771,-25.51680901470986,16.51267225432164,8,59,0.0,16399,574561292462983,70,21.6,-18.79106330871582,13.945899963378906,16,0.0,0.0,1.56109798E9,,,,0,0.0,5,-59.64,1.56109798E9
Raw,72421486,41868945000000,18,0.0,-1385524706471191089,-0.630126953125,420.682190451771,-25.51680901470986,16.51267225432164,8,46,0.0,16399,574561340042378,80,20.9,263.64141845703125,6.251500606536865,16,0.0,0.0,1.56109798E9,,,,0,0.0,5,-59.64,1.56109798E9
Raw,72421486,41868945000000,18,0.0,-1385524706471191089,-0.630126953125,420.682190451771,-25.51680901470986,16.51267225432164,8,41,0.0,16399,574561335244490,80,20.3,-32.08980178833008,6.27400016784668,16,0.0,0.0,1.56109798E9,,,,0,0.0,5,-59.64,1.56109798E9
Raw,72421486,41868945000000,18,0.0,-1385524706471191089,-0.630126953125,420.682190451771,-25.51680901470986,16.51267225432164,8,40,0.0,16399,574561294903714,24,29.9,-122.4509506225586,2.403674602508545,16,0.0,0.0,1.56109798E9,,,,0,0.0,5,-59.64,1.56109798E9
Raw,72421486,41868945000000,18,0.0,-1385524706471191089,-0.630126953125,420.682190451771,-25.51680901470986,16.51267225432164,8,32,0.0,16399,574561336288995,14,34.6,-473.66998291015625,2.333556652069092,16,0.0,0.0,1.56109798E9,,,,0,0.0,5,-59.64,1.56109798E9
Raw,72421486,41868945000000,18,0.0,-1385524706471191089,-0.630126953125,420.682190451771,-25.51680901470986,16.51267225432164,8,30,0.0,16399,574561337512959,92,19.5,-159.55601501464844,6.367000579833984,16,0.0,0.0,1.56109798E9,,,,0,0.0,5,-59.64,1.56109798E9
Raw,72421487,41868945000000,18,0.0,-1385524706471191089,-0.630126953125,420.682190451771,-25.51680901470986,16.51267225432164,8,27,0.0,16399,574561339547483,13,35.5,119.8791732788086,0.053468942642211914,16,0.0,0.0,1.56109798E9,,,,0,0.0,5,-59.64,1.56109798E9
Raw,72421487,41868945000000,18,0.0,-1385524706471191089,-0.630126953125,420.682190451771,-25.51680901470986,16.51267225432164,8,16,0.0,16399,574561281195994,139,16.7,196.45639038085938,6.683000087738037,16,0.0,0.0,1.56109798E9,,,,0,0.0,5,-59.64,1.56109798E9
Raw,72421487,41868945000000,18,0.0,-1385524706471191089,-0.630126953125,420.682190451771,-25.51680901470986,16.51267225432164,8,9,0.0,16399,574561284214142,35,27.1,281.5202941894531,0.6875,16,0.0,0.0,1.56109798E9,,,,0,0.0,5,-59.64,1.56109798E9
Raw,72421487,41868945000000,18,0.0,-1385524706471191089,-0.630126953125,420.682190451771,-25.51680901470986,16.51267225432164,8,1,0.0,16399,574561292659300,61,22.3,-17.590816497802734,12.731800079345703,16,0.0,0.0,1.56109798E9,,,,0,0.0,5,-59.64,1.56109798E9
Raw,72421487,41868945000000,18,0.0,-1385524706471191089,-0.630126953125,420.682190451771,-25.51680901470986,16.51267225432164,8,25,0.0,23567,574575333366972,31,27.3,412.9228515625,3.128142833709717,16,0.0,0.0,1.57542003E9,,,,0,0.0,6,-57.8,1.57542003E9
Raw,72421488,41868945000000,18,0.0,-1385524706471191089,-0.630126953125,420.682190451771,-25.51680901470986,16.51267225432164,8,34,0.0,23567,574575334638514,70,21.8,-53.69135665893555,6.218500137329102,16,0.0,0.0,1.57542003E9,,,,0,0.0,6,-57.8,1.57542003E9
Raw,72421488,41868945000000,18,0.0,-1385524706471191089,-0.630126953125,420.682190451771,-25.51680901470986,16.51267225432164,8,36,0.0,23567,574575334166218,40,25.3,283.51446533203125,1.6090285778045654,16,0.0,0.0,1.57542003E9,,,,0,0.0,6,-57.8,1.57542003E9
Raw,72421488,41868945000000,18,0.0,-1385524706471191089,-0.630126953125,420.682190451771,-25.51680901470986,16.51267225432164,8,27,0.0,16399,574561339547499,4,37.4,119.78195190429688,1.2262767553329468,16,0.0,0.0,1.57542003E9,,,,0,0.0,5,-57.8,1.57542003E9
Raw,72421488,41868945000000,18,0.0,-1385524706471191089,-0.630126953125,420.682190451771,-25.51680901470986,16.51267225432164,8,32,0.0,16399,574561336288973,3,39.4,-473.6951599121094,0.6638785600662231,16,0.0,0.0,1.57542003E9,,,,0,0.0,5,-57.8,1.57542003E9
Raw,72421488,41868945000000,18,0.0,-1385524706471191089,-0.630126953125,420.682190451771,-25.51680901470986,16.51267225432164,8,40,0.0,16399,574561294903711,6,33.1,-122.3272705078125,2.385129451751709,16,0.0,0.0,1.57542003E9,,,,0,0.0,5,-57.8,1.57542003E9
Raw,72421488,41868945000000,18,0.0,-1385524706471191089,-0.630126953125,420.682190451771,-25.51680901470986,16.51267225432164,8,41,0.0,16399,574561335244543,6,32.4,-31.99378204345703,0.6832728385925293,16,0.0,0.0,1.57542003E9,,,,0,0.0,5,-57.8,1.57542003E9
Raw,72421488,41868945000000,18,0.0,-1385524706471191089,-0.630126953125,420.682190451771,-25.51680901470986,16.51267225432164,8,46,0.0,16399,574561340042451,9,28.5,263.39501953125,0.6689412593841553,16,0.0,0.0,1.57542003E9,,,,0,0.0,5,-57.8,1.57542003E9
Raw,72422452,41869945000000,18,0.0,-1385524706471191029,-0.08670902252197266,283.81531592458487,-22.208732425110195,12.016143786082289,8,3,0.0,16399,574576339639086,10,38.4,484.0594787597656,0.05089910700917244,16,0.0,0.0,1.57542003E9,,,,0,0.0,1,-54.1,1.57542003E9
Raw,72422452,41869945000000,18,0.0,-1385524706471191029,-0.08670902252197266,283.81531592458487,-22.208732425110195,12.016143786082289,8,6,0.0,16399,574576345336531,14,34.2,-118.1090087890625,0.04549565538764,16,0.0,0.0,1.57542003E9,,,,0,0.0,1,-54.1,1.57542003E9
Raw,72422452,41869945000000,18,0.0,-1385524706471191029,-0.08670902252197266,283.81531592458487,-22.208732425110195,12.016143786082289,8,17,0.0,16399,574576344517534,14,33.6,-91.86736297607422,1.1887576580047607,16,0.0,0.0,1.57542003E9,,,,0,0.0,1,-54.1,1.57542003E9
Raw,72422452,41869945000000,18,0.0,-1385524706471191029,-0.08670902252197266,283.81531592458487,-22.208732425110195,12.016143786082289,8,195,0.0,16399,574576283516206,19,30.6,30.245262145996094,0.6355896592140198,16,0.0,0.0,1.57542003E9,,,,0,0.0,4,-54.1,1.57542003E9
Raw,72422453,41869945000000,18,0.0,-1385524706471191029,-0.08670902252197266,283.81531592458487,-22.208732425110195,12.016143786082289,8,196,0.0,16399,574576293321024,27,28.5,49.88548278808594,0.6240000128746033,16,0.0,0.0,1.57542003E9,,,,0,0.0,4,-54.1,1.57542003E9
Raw,72422453,41869945000000,18,0.0,-1385524706471191029,-0.08670902252197266,283.81531592458487,-22.208732425110195,12.016143786082289,8,2,0.0,49359,66958342639723,10,38.0,-471.1376953125,0.04630938544869423,16,0.0,0.0,1.59975002E9,,,,0,0.0,3,-54.78,1.59975002E9
Raw,72422453,41869945000000,18,0.0,-1385524706471191029,-0.08670902252197266,283.81531592458487,-22.208732425110195,12.016143786082289,8,15,0.0,49359,66958349328297,61,22.7,-104.16011047363281,1.0099999904632568,16,0.0,0.0,1.602E9,,,,0,0.0,3,-54.78,1.602E9
Raw,72422453,41869945000000,18,0.0,-1385524706471191029,-0.08670902252197266,283.81531592458487,-22.208732425110195,12.016143786082289,8,59,0.0,16399,574562292462988,24,30.1,-14.153311729431152,2.5256998538970947,16,0.0,0.0,1.56109798E9,,,,0,0.0,5,-59.64,1.56109798E9
Raw,72422453,41869945000000,18,0.0,-1385524706471191029,-0.08670902252197266,283.81531592458487,-22.208732425110195,12.016143786082289,8,46,0.0,16399,574562340041511,40,25.8,263.01727294921875,0.8134999871253967,16,0.0,0.0,1.56109798E9,,,,0,0.0,5,-59.64,1.56109798E9
Raw,72422454,41869945000000,18,0.0,-1385524706471191029,-0.08670902252197266,283.81531592458487,-22.208732425110195,12.016143786082289,8,40,0.0,16399,574562294904141,24,29.7,-123.05665588378906,0.6753190159797668,16,0.0,0.0,1.56109798E9,,,,0,0.0,5,-59.64,1.56109798E9
Raw,72422454,41869945000000,18,0.0,-1385524706471191029,-0.08670902252197266,283.81531592458487,-22.208732425110195,12.016143786082289,8,32,0.0,16399,574562336290583,14,34.7,-474.5898132324219,0.0290827713906765,16,0.0,0.0,1.56109798E9,,,,0,0.0,5,-59.64,1.56109798E9
Raw,72422454,41869945000000,18,0.0,-1385524706471191029,-0.08670902252197266,283.81531592458487,-22.208732425110195,12.016143786082289,8,30,0.0,16399,574562337513588,40,25.5,-159.94009399414062,0.7879999876022339,16,0.0,0.0,1.56109798E9,,,,0,0.0,5,-59.64,1.56109798E9
Raw,72422454,41869945000000,18,0.0,-1385524706471191029,-0.08670902252197266,283.81531592458487,-22.208732425110195,12.016143786082289,8,27,0.0,16399,574562339547076,12,36.7,119.1033706665039,0.6286848187446594,16,0.0,0.0,1.56109798E9,,,,0,0.0,5,-59.64,1.56109798E9
Raw,72422454,41869945000000,18,0.0,-1385524706471191029,-0.08670902252197266,283.81531592458487,-22.208732425110195,12.016143786082289,8,25,0.0,23567,574576333365563,53,23.8,411.9076843261719,0.15658068656921387,16,0.0,0.0,1.57542003E9,,,,0,0.0,6,-57.88,1.57542003E9
Raw,72422454,41869945000000,18,0.0,-1385524706471191029,-0.08670902252197266,283.81531592458487,-22.208732425110195,12.016143786082289,8,30,0.0,23567,574576327955343,159,16.0,-463.8408203125,7.513999938964844,16,0.0,0.0,1.57542003E9,,,,0,0.0,6,-57.88,1.57542003E9
Raw,72422455,41869945000000,18,0.0,-1385524706471191029,-0.08670902252197266,283.81531592458487,-22.208732425110195,12.016143786082289,8,34,0.0,23567,574576334638710,31,27.9,-54.22747039794922,3.129642963409424,16,0.0,0.0,1.57542003E9,,,,0,0.0,6,-57.88,1.57542003E9
Raw,72422455,41869945000000,18,0.0,-1385524706471191029,-0.08670902252197266,283.81531592458487,-22.208732425110195,12.016143786082289,8,36,0.0,23567,574576334165261,40,25.3,282.5226135253906,0.8445443511009216,16,0.0,0.0,1.57542003E9,,,,0,0.0,6,-57.88,1.57542003E9
Raw,72422456,41869945000000,18,0.0,-1385524706471191029,-0.08670902252197266,283.81531592458487,-22.208732425110195,12.016143786082289,8,27,0.0,16399,574562339547090,3,38.4,119.23281860351562,0.0833919569849968,16,0.0,0.0,1.57542003E9,,,,0,0.0,5,-57.88,1.57542003E9
Raw,72422456,41869945000000,18,0.0,-1385524706471191029,-0.08670902252197266,283.81531592458487,-22.208732425110195,12.016143786082289,8,32,0.0,16399,574562336290544,3,39.0,-474.44677734375,0.09299757331609726,16,0.0,0.0,1.57542003E9,,,,0,0.0,5,-57.88,1.57542003E9
Raw,72422456,41869945000000,18,0.0,-1385524706471191029,-0.08670902252197266,283.81531592458487,-22.208732425110195,12.016143786082289,8,40,0.0,16399,574562294904125,7,31.0,-122.96195220947266,0.6970723867416382,16,0.0,0.0,1.57542003E9,,,,0,0.0,5,-57.88,1.57542003E9
Raw,72422456,41869945000000,18,0.0,-1385524706471191029,-0.08670902252197266,283.81531592458487,-22.208732425110195,12.016143786082289,8,41,0.0,16399,574562335244621,12,25.4,-32.43555450439453,1.0640000104904175,16,0.0,0.0,1.57542003E9,,,,0,0.0,5,-57.88,1.57542003E9
Raw,72422457,41869945000000,18,0.0,-1385524706471191029,-0.08670902252197266,283.81531592458487,-22.208732425110195,12.016143786082289,8,46,0.0,16399,574562340041562,9,28.3,263.0672912597656,1.2398223876953125,16,0.0,0.0,1.57542003E9,,,,0,0.0,5,-57.88,1.57542003E9
Raw,72423434,41870945000000,18,0.0,-1385524706471191015,-0.1094198226928711,240.28890766203403,-24.84530742726767,12.904230800146317,8,3,0.0,16399,574577339637485,27,28.2,483.1175842285156,0.6450000405311584,16,0.0,0.0,1.57542003E9,,,,0,0.0,1,-54.1,1.57542003E9
Raw,72423435,41870945000000,18,0.0,-1385524706471191015,-0.1094198226928711,240.28890766203403,-24.84530742726767,12.904230800146317,8,6,0.0,16399,574577345336898,24,29.0,-118.9035873413086,4.679050922393799,16,0.0,0.0,1.57542003E9,,,,0,0.0,1,-54.1,1.57542003E9
Raw,72423435,41870945000000,18,0.0,-1385524706471191015,-0.1094198226928711,240.28890766203403,-24.84530742726767,12.904230800146317,8,17,0.0,16399,574577344517888,31,26.9,-93.54837036132812,0.7475000023841858,16,0.0,0.0,1.57542003E9,,,,0,0.0,1,-54.1,1.57542003E9
Raw,72423435,41870945000000,18,0.0,-1385524706471191015,-0.1094198226928711,240.28890766203403,-24.84530742726767,12.904230800146317,8,195,0.0,16399,574577283516020,40,24.9,28.829490661621094,0.8689999580383301,16,0.0,0.0,1.57542003E9,,,,0,0.0,4,-54.1,1.57542003E9
Raw,72423435,41870945000000,18,0.0,-1385524706471191015,-0.1094198226928711,240.28890766203403,-24.84530742726767,12.904230800146317,8,2,0.0,49359,66959342641308,17,32.7,-472.2883605957031,0.056054163724184036,16,0.0,0.0,1.59975002E9,,,,0,0.0,3,-54.65,1.59975002E9
Raw,72423436,41870945000000,18,0.0,-1385524706471191015,-0.1094198226928711,240.28890766203403,-24.84530742726767,12.904230800146317,8,40,0.0,16399,574563294904496,61,23.1,-123.79826354980469,0.92249995470047,16,0.0,0.0,1.56109798E9,,,,0,0.0,5,-59.71,1.56109798E9
Raw,72423436,41870945000000,18,0.0,-1385524706471191015,-0.1094198226928711,240.28890766203403,-24.84530742726767,12.904230800146317,8,32,0.0,16399,574563336292181,27,28.7,-474.9136657714844,0.6195000410079956,16,0.0,0.0,1.56109798E9,,,,0,0.0,5,-59.71,1.56109798E9
Raw,72423436,41870945000000,18,0.0,-1385524706471191015,-0.1094198226928711,240.28890766203403,-24.84530742726767,12.904230800146317,8,27,0.0,16399,574563339546679,31,28.2,118.49796295166016,0.6450000405311584,16,0.0,0.0,1.56109798E9,,,,0,0.0,5,-59.71,1.56109798E9
Raw,72423436,41870945000000,18,0.0,-1385524706471191015,-0.1094198226928711,240.28890766203403,-24.84530742726767,12.904230800146317,8,4,0.0,16399,574563288339699,31,27.6,-19.22315216064453,5.036099910736084,16,0.0,0.0,1.56109798E9,,,,0,0.0,5,-59.71,1.56109798E9
Raw,72423436,41870945000000,18,0.0,-1385524706471191015,-0.1094198226928711,240.28890766203403,-24.84530742726767,12.904230800146317,8,25,0.0,23567,574577333364232,61,22.5,410.7488708496094,1.037000060081482,16,0.0,0.0,1.57542003E9,,,,0,0.0,6,-57.93,1.57542003E9
Raw,72423437,41870945000000,18,0.0,-1385524706471191015,-0.1094198226928711,240.28890766203403,-24.84530742726767,12.904230800146317,8,34,0.0,23567,574577334638846,53,23.4,-55.31596374511719,3.216017246246338,16,0.0,0.0,1.57542003E9,,,,0,0.0,6,-57.93,1.57542003E9
Raw,72423437,41870945000000,18,0.0,-1385524706471191015,-0.1094198226928711,240.28890766203403,-24.84530742726767,12.904230800146317,8,27,0.0,16399,574563339546681,8,29.5,118.14949798583984,1.2318142652511597,16,0.0,0.0,1.57542003E9,,,,0,0.0,5,-57.93,1.57542003E9
Raw,72423437,41870945000000,18,0.0,-1385524706471191015,-0.1094198226928711,240.28890766203403,-24.84530742726767,12.904230800146317,8,32,0.0,16399,574563336292126,5,35.4,-475.5765380859375,0.09790714830160141,16,0.0,0.0,1.57542003E9,,,,0,0.0,5,-57.93,1.57542003E9
Raw,72423437,41870945000000,18,0.0,-1385524706471191015,-0.1094198226928711,240.28890766203403,-24.84530742726767,12.904230800146317,8,40,0.0,16399,574563294904558,12,25.4,-124.12855529785156,1.0625,16,0.0,0.0,1.57542003E9,,,,0,0.0,5,-57.93,1.57542003E9
Raw,72424429,41871945000000,18,0.0,-1385524706471191037,-0.9379987716674805,230.0608466612175,-28.06354296408159,16.176056197292077,8,3,0.0,16399,574578339635850,24,29.5,480.15283203125,0.6918843388557434,16,0.0,0.0,1.57542003E9,,,,0,0.0,1,-54.89,1.57542003E9
Raw,72424430,41871945000000,18,0.0,-1385524706471191037,-0.9379987716674805,230.0608466612175,-28.06354296408159,16.176056197292077,8,6,0.0,16399,574578345337365,40,24.9,-122.10193634033203,0.8659999966621399,16,0.0,0.0,1.57542003E9,,,,0,0.0,1,-54.89,1.57542003E9
Raw,72424430,41871945000000,18,0.0,-1385524706471191037,-0.9379987716674805,230.0608466612175,-28.06354296408159,16.176056197292077,8,17,0.0,16399,574578344518129,35,26.3,-96.05072784423828,0.7475000023841858,16,0.0,0.0,1.57542003E9,,,,0,0.0,1,-54.89,1.57542003E9
Raw,72424430,41871945000000,18,0.0,-1385524706471191037,-0.9379987716674805,230.0608466612175,-28.06354296408159,16.176056197292077,8,195,0.0,16399,574578283515992,46,24.1,26.336645126342773,0.8689999580383301,16,0.0,0.0,1.57542003E9,,,,0,0.0,4,-54.89,1.57542003E9
Raw,72424430,41871945000000,18,0.0,-1385524706471191037,-0.9379987716674805,230.0608466612175,-28.06354296408159,16.176056197292077,8,2,0.0,49359,66960342642874,24,29.6,-475.0518493652344,2.9263408184051514,16,0.0,0.0,1.59975002E9,,,,0,0.0,3,-55.27,1.59975002E9
Raw,72424431,41871945000000,18,0.0,-1385524706471191037,-0.9379987716674805,230.0608466612175,-28.06354296408159,16.176056197292077,8,32,0.0,16399,574564336293764,40,25.3,-479.2441711425781,0.7894999980926514,16,0.0,0.0,1.56109798E9,,,,0,0.0,5,-60.36,1.56109798E9
Raw,72424431,41871945000000,18,0.0,-1385524706471191037,-0.9379987716674805,230.0608466612175,-28.06354296408159,16.176056197292077,8,27,0.0,16399,574564339546298,27,28.9,115.20449829101562,0.6450000405311584,16,0.0,0.0,1.56109798E9,,,,0,0.0,5,-60.36,1.56109798E9
Raw,72424431,41871945000000,18,0.0,-1385524706471191037,-0.9379987716674805,230.0608466612175,-28.06354296408159,16.176056197292077,8,27,0.0,16399,574564339546319,8,30.1,115.1018295288086,0.6590873599052429,16,0.0,0.0,1.57542003E9,,,,0,0.0,5,-58.69,1.57542003E9
Raw,72424431,41871945000000,18,0.0,-1385524706471191037,-0.9379987716674805,230.0608466612175,-28.06354296408159,16.176056197292077,8,32,0.0,16399,574564336293720,7,31.6,-478.4761047363281,0.12919142842292786,16,0.0,0.0,1.57542003E9,,,,0,0.0,5,-58.69,1.57542003E9
Raw,72424431,41871945000000,18,0.0,-1385524706471191037,-0.9379987716674805,230.0608466612175,-28.06354296408159,16.176056197292077,8,40,0.0,16399,574564294904949,14,24.6,-127.3635482788086,1.1424999237060547,16,0.0,0.0,1.57542003E9,,,,0,0.0,5,-58.69,1.57542003E9
Raw,72425431,41872945000000,18,0.0,-1385524706471191078,-0.662872314453125,218.17756351083517,-36.22373624943434,19.282978154363818,8,3,0.0,16399,574579339634271,21,30.3,481.2474060058594,0.08909104764461517,16,0.0,0.0,1.57542003E9,,,,0,0.0,1,-54.91,1.57542003E9
Raw,72425431,41872945000000,18,0.0,-1385524706471191078,-0.662872314453125,218.17756351083517,-36.22373624943434,19.282978154363818,8,6,0.0,16399,574579345337706,46,24.2,-120.57958984375,0.8659999966621399,16,0.0,0.0,1.57542003E9,,,,0,0.0,1,-54.91,1.57542003E9
Raw,72425432,41872945000000,18,0.0,-1385524706471191078,-0.662872314453125,218.17756351083517,-36.22373624943434,19.282978154363818,8,17,0.0,16399,574579344518512,31,27.2,-94.88993835449219,0.6875,16,0.0,0.0,1.57542003E9,,,,0,0.0,1,-54.91,1.57542003E9
Raw,72425432,41872945000000,18,0.0,-1385524706471191078,-0.662872314453125,218.17756351083517,-36.22373624943434,19.282978154363818,8,195,0.0,16399,574579283515923,40,24.6,27.602096557617188,0.8689999580383301,16,0.0,0.0,1.57542003E9,,,,0,0.0,4,-54.91,1.57542003E9
Raw,72425432,41872945000000,18,0.0,-1385524706471191078,-0.662872314453125,218.17756351083517,-36.22373624943434,19.282978154363818,8,2,0.0,49359,66961342644469,21,30.3,-473.96429443359375,2.3327152729034424,16,0.0,0.0,1.59975002E9,,,,0,0.0,3,-55.25,1.59975002E9
Raw,72425433,41872945000000,18,0.0,-1385524706471191078,-0.662872314453125,218.17756351083517,-36.22373624943434,19.282978154363818,8,40,0.0,16399,574565294905381,70,22.0,-126.84208679199219,1.7074999809265137,16,0.0,0.0,1.56109798E9,,,,0,0.0,5,-60.39,1.56109798E9
Raw,72425433,41872945000000,18,0.0,-1385524706471191078,-0.662872314453125,218.17756351083517,-36.22373624943434,19.282978154363818,8,32,0.0,16399,574565336295328,46,24.8,-477.4870300292969,0.8495000004768372,16,0.0,0.0,1.56109798E9,,,,0,0.0,5,-60.39,1.56109798E9
Raw,72425433,41872945000000,18,0.0,-1385524706471191078,-0.662872314453125,218.17756351083517,-36.22373624943434,19.282978154363818,8,27,0.0,16399,574565339545925,24,29.5,116.03508758544922,0.12170056998729706,16,0.0,0.0,1.56109798E9,,,,0,0.0,5,-60.39,1.56109798E9
Raw,72425433,41872945000000,18,0.0,-1385524706471191078,-0.662872314453125,218.17756351083517,-36.22373624943434,19.282978154363818,8,27,0.0,16399,574565339545919,7,31.5,115.92567443847656,1.7992889881134033,16,0.0,0.0,1.57542003E9,,,,0,0.0,5,-58.68,1.57542003E9
Raw,72425433,41872945000000,18,0.0,-1385524706471191078,-0.662872314453125,218.17756351083517,-36.22373624943434,19.282978154363818,8,32,0.0,16399,574565336295287,8,30.8,-477.6683654785156,0.6695873737335205,16,0.0,0.0,1.57542003E9,,,,0,0.0,5,-58.68,1.57542003E9
Raw,72426438,41873945000000,18,0.0,-1385524706471191107,-0.6605319976806641,209.5778181683272,-34.70465517239206,18.13108683162196,8,3,0.0,16399,574580339632689,24,28.6,482.0637512207031,1.2627652883529663,16,0.0,0.0,1.57542003E9,,,,0,0.0,1,-54.62,1.57542003E9
Raw,72426438,41873945000000,18,0.0,-1385524706471191107,-0.6605319976806641,209.5778181683272,-34.70465517239206,18.13108683162196,8,6,0.0,16399,574580345338087,40,24.6,-120.16094207763672,0.8659999966621399,16,0.0,0.0,1.57542003E9,,,,0,0.0,1,-54.62,1.57542003E9
Raw,72426438,41873945000000,18,0.0,-1385524706471191107,-0.6605319976806641,209.5778181683272,-34.70465517239206,18.13108683162196,8,17,0.0,16399,574580344518819,31,27.2,-94.26197052001953,0.6875,16,0.0,0.0,1.57542003E9,,,,0,0.0,1,-54.62,1.57542003E9
Raw,72426438,41873945000000,18,0.0,-1385524706471191107,-0.6605319976806641,209.5778181683272,-34.70465517239206,18.13108683162196,8,195,0.0,16399,574580283515895,40,24.7,27.449861526489258,0.8689999580383301,16,0.0,0.0,1.57542003E9,,,,0,0.0,4,-54.62,1.57542003E9
Raw,72426438,41873945000000,18,0.0,-1385524706471191107,-0.6605319976806641,209.5778181683272,-34.70465517239206,18.13108683162196,8,2,0.0,49359,66962342646120,24,29.7,-473.17291259765625,0.11534738540649414,16,0.0,0.0,1.59975002E9,,,,0,0.0,3,-54.97,1.59975002E9
Raw,72426439,41873945000000,18,0.0,-1385524706471191107,-0.6605319976806641,209.5778181683272,-34.70465517239206,18.13108683162196,8,32,0.0,16399,574566336296916,35,26.9,-476.8244323730469,0.7294999957084656,16,0.0,0.0,1.56109798E9,,,,0,0.0,5,-60.17,1.56109798E9
Raw,72426439,41873945000000,18,0.0,-1385524706471191107,-0.6605319976806641,209.5778181683272,-34.70465517239206,18.13108683162196,8,27,0.0,16399,574566339545508,24,29.6,116.74950408935547,0.6978190541267395,16,0.0,0.0,1.56109798E9,,,,0,0.0,5,-60.17,1.56109798E9
Raw,72426439,41873945000000,18,0.0,-1385524706471191107,-0.6605319976806641,209.5778181683272,-34.70465517239206,18.13108683162196,8,25,0.0,23567,574580333360065,122,18.0,409.15997314453125,2.897000312805176,16,0.0,0.0,1.57542003E9,,,,0,0.0,6,-58.38,1.57542003E9
Raw,72426439,41873945000000,18,0.0,-1385524706471191107,-0.6605319976806641,209.5778181683272,-34.70465517239206,18.13108683162196,8,34,0.0,23567,574580334639450,122,18.1,-57.126163482666016,2.8984999656677246,16,0.0,0.0,1.57542003E9,,,,0,0.0,6,-58.38,1.57542003E9
Raw,72426439,41873945000000,18,0.0,-1385524706471191107,-0.6605319976806641,209.5778181683272,-34.70465517239206,18.13108683162196,8,36,0.0,23567,574580334161551,139,16.6,279.50335693359375,3.9184999465942383,16,0.0,0.0,1.57542003E9,,,,0,0.0,6,-58.38,1.57542003E9
Raw,72426439,41873945000000,18,0.0,-1385524706471191107,-0.6605319976806641,209.5778181683272,-34.70465517239206,18.13108683162196,8,27,0.0,16399,574566339545552,7,31.2,116.49369049072266,0.657526969909668,16,0.0,0.0,1.57542003E9,,,,0,0.0,5,-58.38,1.57542003E9
Raw,72426440,41873945000000,18,0.0,-1385524706471191107,-0.6605319976806641,209.5778181683272,-34.70465517239206,18.13108683162196,8,32,0.0,16399,574566336296905,8,30.7,-477.0574951171875,0.6695873737335205,16,0.0,0.0,1.57542003E9,,,,0,0.0,5,-58.38,1.57542003E9
Raw,72426440,41873945000000,18,0.0,-1385524706471191107,-0.6605319976806641,209.5778181683272,-34.70465517239206,18.13108683162196,8,40,0.0,16399,574566294905843,16,23.6,-125.82217407226562,2.012500047683716,16,0.0,0.0,1.57542003E9,,,,0,0.0,5,-58.38,1.57542003E9
Raw,72427428,41874945000000,18,0.0,-1385524706471191138,-0.25261592864990234,202.94271234888583,-32.79131623262382,18.158142215587073,8,3,0.0,16399,574581339631050,27,28.4,483.20318603515625,0.6450000405311584,16,0.0,0.0,1.57542003E9,,,,0,0.0,1,-54.62,1.57542003E9
Raw,72427429,41874945000000,18,0.0,-1385524706471191138,-0.25261592864990234,202.94271234888583,-32.79131623262382,18.158142215587073,8,6,0.0,16399,574581345338551,35,25.7,-118.73373413085938,0.8059999942779541,16,0.0,0.0,1.57542003E9,,,,0,0.0,1,-54.62,1.57542003E9
Raw,72427429,41874945000000,18,0.0,-1385524706471191138,-0.25261592864990234,202.94271234888583,-32.79131623262382,18.158142215587073,8,17,0.0,16399,574581344519123,31,27.4,-92.8728256225586,0.6875,16,0.0,0.0,1.57542003E9,,,,0,0.0,1,-54.62,1.57542003E9
Raw,72427429,41874945000000,18,0.0,-1385524706471191138,-0.25261592864990234,202.94271234888583,-32.79131623262382,18.158142215587073,8,195,0.0,16399,574581283515693,40,24.8,28.648712158203125,0.8689999580383301,16,0.0,0.0,1.57542003E9,,,,0,0.0,4,-54.62,1.57542003E9
Raw,72427429,41874945000000,18,0.0,-1385524706471191138,-0.25261592864990234,202.94271234888583,-32.79131623262382,18.158142215587073,8,2,0.0,49359,66963342647657,24,29.8,-471.8443298339844,0.11534738540649414,16,0.0,0.0,1.59975002E9,,,,0,0.0,3,-54.96,1.59975002E9
Raw,72427429,41874945000000,18,0.0,-1385524706471191138,-0.25261592864990234,202.94271234888583,-32.79131623262382,18.158142215587073,8,40,0.0,16399,574567294906217,80,20.9,-125.16173553466797,1.877500057220459,16,0.0,0.0,1.56109798E9,,,,0,0.0,5,-60.17,1.56109798E9
Raw,72427429,41874945000000,18,0.0,-1385524706471191138,-0.25261592864990234,202.94271234888583,-32.79131623262382,18.158142215587073,8,32,0.0,16399,574567336298519,31,27.6,-475.48016357421875,0.6694999933242798,16,0.0,0.0,1.56109798E9,,,,0,0.0,5,-60.17,1.56109798E9
Raw,72427430,41874945000000,18,0.0,-1385524706471191138,-0.25261592864990234,202.94271234888583,-32.79131623262382,18.158142215587073,8,27,0.0,16399,574567339545123,27,28.9,118.3443374633789,0.6450000405311584,16,0.0,0.0,1.56109798E9,,,,0,0.0,5,-60.17,1.56109798E9
Raw,72427430,41874945000000,18,0.0,-1385524706471191138,-0.25261592864990234,202.94271234888583,-32.79131623262382,18.158142215587073,8,27,0.0,16399,574567339545139,8,30.6,117.89276885986328,1.2299684286117554,16,0.0,0.0,1.57542003E9,,,,0,0.0,5,-58.38,1.57542003E9
Raw,72427430,41874945000000,18,0.0,-1385524706471191138,-0.25261592864990234,202.94271234888583,-32.79131623262382,18.158142215587073,8,32,0.0,16399,574567336298484,7,31.4,-475.6330261230469,0.6680269837379456,16,0.0,0.0,1.57542003E9,,,,0,0.0,5,-58.38,1.57542003E9
Raw,72428415,41875945000000,18,0.0,-1385524706471191157,-0.5049161911010742,192.0973154483363,-28.5681378042126,17.106463971429697,8,3,0.0,16399,574582339629460,24,28.7,484.6656188964844,0.12100329250097275,16,0.0,0.0,1.57542003E9,,,,0,0.0,1,-55.18,1.57542003E9
Raw,72428416,41875945000000,18,0.0,-1385524706471191157,-0.5049161911010742,192.0973154483363,-28.5681378042126,17.106463971429697,8,6,0.0,16399,574582345338908,40,24.6,-117.4778060913086,0.8659999966621399,16,0.0,0.0,1.57542003E9,,,,0,0.0,1,-55.18,1.57542003E9
Raw,72428416,41875945000000,18,0.0,-1385524706471191157,-0.5049161911010742,192.0973154483363,-28.5681378042126,17.106463971429697,8,17,0.0,16399,574582344519430,35,25.9,-91.2267837524414,0.8075000047683716,16,0.0,0.0,1.57542003E9,,,,0,0.0,1,-55.18,1.57542003E9
Raw,72428417,41875945000000,18,0.0,-1385524706471191157,-0.5049161911010742,192.0973154483363,-28.5681378042126,17.106463971429697,8,195,0.0,16399,574582283515552,61,22.2,29.752416610717773,1.0190000534057617,16,0.0,0.0,1.57542003E9,,,,0,0.0,4,-55.18,1.57542003E9
Raw,72428417,41875945000000,18,0.0,-1385524706471191157,-0.5049161911010742,192.0973154483363,-28.5681378042126,17.106463971429697,8,2,0.0,49359,66964342649185,31,27.9,-470.5977783203125,0.6904999613761902,16,0.0,0.0,1.59975002E9,,,,0,0.0,3,-55.55,1.59975002E9
Raw,72428417,41875945000000,18,0.0,-1385524706471191157,-0.5049161911010742,192.0973154483363,-28.5681378042126,17.106463971429697,8,32,0.0,16399,574568336300104,31,27.3,-474.1551208496094,0.6694999933242798,16,0.0,0.0,1.56109798E9,,,,0,0.0,5,-60.52,1.56109798E9
Raw,72428417,41875945000000,18,0.0,-1385524706471191157,-0.5049161911010742,192.0973154483363,-28.5681378042126,17.106463971429697,8,27,0.0,16399,574568339544726,27,28.7,119.55418395996094,0.6450000405311584,16,0.0,0.0,1.56109798E9,,,,0,0.0,5,-60.52,1.56109798E9
Raw,72428417,41875945000000,18,0.0,-1385524706471191157,-0.5049161911010742,192.0973154483363,-28.5681378042126,17.106463971429697,8,34,0.0,23567,574582334639873,122,17.8,-54.642826080322266,2.2985000610351562,16,0.0,0.0,1.57542003E9,,,,0,0.0,6,-58.98,1.57542003E9
Raw,72428417,41875945000000,18,0.0,-1385524706471191157,-0.5049161911010742,192.0973154483363,-28.5681378042126,17.106463971429697,8,27,0.0,16399,574568339544743,8,30.9,119.11351013183594,0.08820638060569763,16,0.0,0.0,1.57542003E9,,,,0,0.0,5,-58.98,1.57542003E9
Raw,72428418,41875945000000,18,0.0,-1385524706471191157,-0.5049161911010742,192.0973154483363,-28.5681378042126,17.106463971429697,8,32,0.0,16399,574568336300077,8,30.3,-474.37103271484375,0.09870637953281403,16,0.0,0.0,1.57542003E9,,,,0,0.0,5,-58.98,1.57542003E9
Raw,72428418,41875945000000,18,0.0,-1385524706471191157,-0.5049161911010742,192.0973154483363,-28.5681378042126,17.106463971429697,8,40,0.0,16399,574568294906639,14,24.2,-123.35787200927734,1.9225000143051147,16,0.0,0.0,1.57542003E9,,,,0,0.0,5,-58.98,1.57542003E9
Raw,72429434,41876945000000,18,0.0,-1385524706471191178,-0.6347627639770508,186.47710385266691,-24.83083971577169,16.74490160974941,8,3,0.0,16399,574583339627854,24,28.6,485.41693115234375,0.12100329250097275,16,0.0,0.0,1.57542003E9,,,,0,0.0,1,-55.02,1.57542003E9
Raw,72429435,41876945000000,18,0.0,-1385524706471191178,-0.6347627639770508,186.47710385266691,-24.83083971577169,16.74490160974941,8,6,0.0,16399,574583345339276,35,25.9,-116.63099670410156,0.8059999942779541,16,0.0,0.0,1.57542003E9,,,,0,0.0,1,-55.02,1.57542003E9
Raw,72429435,41876945000000,18,0.0,-1385524706471191178,-0.6347627639770508,186.47710385266691,-24.83083971577169,16.74490160974941,8,17,0.0,16399,574583344519716,35,26.3,-90.9889144897461,0.7475000023841858,16,0.0,0.0,1.57542003E9,,,,0,0.0,1,-55.02,1.57542003E9
Raw,72429435,41876945000000,18,0.0,-1385524706471191178,-0.6347627639770508,186.47710385266691,-24.83083971577169,16.74490160974941,8,195,0.0,16399,574583283515598,46,24.1,31.208162307739258,0.8689999580383301,16,0.0,0.0,1.57542003E9,,,,0,0.0,4,-55.02,1.57542003E9
Raw,72429435,41876945000000,18,0.0,-1385524706471191178,-0.6347627639770508,186.47710385266691,-24.83083971577169,16.74490160974941,8,2,0.0,49359,66965342650696,31,27.0,-469.59521484375,0.6904999613761902,16,0.0,0.0,1.59975002E9,,,,0,0.0,3,-55.44,1.59975002E9
Raw,72429435,41876945000000,18,0.0,-1385524706471191178,-0.6347627639770508,186.47710385266691,-24.83083971577169,16.74490160974941,8,41,0.0,16399,574569335245349,159,16.0,-32.521888732910156,6.809000015258789,16,0.0,0.0,1.56109798E9,,,,0,0.0,5,-60.23,1.56109798E9
Raw,72429436,41876945000000,18,0.0,-1385524706471191178,-0.6347627639770508,186.47710385266691,-24.83083971577169,16.74490160974941,8,40,0.0,16399,574569294907084,70,21.9,-123.05889892578125,1.7874999046325684,16,0.0,0.0,1.56109798E9,,,,0,0.0,5,-60.23,1.56109798E9
Raw,72429436,41876945000000,18,0.0,-1385524706471191178,-0.6347627639770508,186.47710385266691,-24.83083971577169,16.74490160974941,8,32,0.0,16399,574569336301624,31,27.7,-473.502197265625,0.6694999933242798,16,0.0,0.0,1.56109798E9,,,,0,0.0,5,-60.23,1.56109798E9
Raw,72429436,41876945000000,18,0.0,-1385524706471191178,-0.6347627639770508,186.47710385266691,-24.83083971577169,16.74490160974941,8,27,0.0,16399,574569339544345,27,28.8,120.17830657958984,0.6450000405311584,16,0.0,0.0,1.56109798E9,,,,0,0.0,5,-60.23,1.56109798E9
Raw,72429436,41876945000000,18,0.0,-1385524706471191178,-0.6347627639770508,186.47710385266691,-24.83083971577169,16.74490160974941,8,27,0.0,16399,574569339544364,8,30.6,119.75601959228516,0.08820638060569763,16,0.0,0.0,1.57542003E9,,,,0,0.0,5,-58.83,1.57542003E9
Raw,72429436,41876945000000,18,0.0,-1385524706471191178,-0.6347627639770508,186.47710385266691,-24.83083971577169,16.74490160974941,8,32,0.0,16399,574569336301637,8,29.9,-473.7235107421875,0.10055223107337952,16,0.0,0.0,1.57542003E9,,,,0,0.0,5,-58.83,1.57542003E9
Raw,72429437,41876945000000,18,0.0,-1385524706471191178,-0.6347627639770508,186.47710385266691,-24.83083971577169,16.74490160974941,8,40,0.0,16399,574569294907024,14,24.5,-122.2541732788086,1.1424999237060547,16,0.0,0.0,1.57542003E9,,,,0,0.0,5,-58.83,1.57542003E9
Raw,72430453,41877945000000,18,0.0,-1385524706471191199,-0.21326637268066406,175.48189498484135,-22.72372473996078,14.693589755104405,8,3,0.0,16399,574584339626237,24,28.8,487.0584716796875,0.12100329250097275,16,0.0,0.0,1.57542003E9,,,,0,0.0,1,-54.66,1.57542003E9
Raw,72430454,41877945000000,18,0.0,-1385524706471191199,-0.21326637268066406,175.48189498484135,-22.72372473996078,14.693589755104405,8,6,0.0,16399,574584345339695,35,26.0,-115.451171875,0.7459999918937683,16,0.0,0.0,1.57542003E9,,,,0,0.0,1,-54.66,1.57542003E9
Raw,72430454,41877945000000,18,0.0,-1385524706471191199,-0.21326637268066406,175.48189498484135,-22.72372473996078,14.693589755104405,8,17,0.0,16399,574584344519997,31,26.6,-89.20015716552734,0.7475000023841858,16,0.0,0.0,1.57542003E9,,,,0,0.0,1,-54.66,1.57542003E9
Raw,72430454,41877945000000,18,0.0,-1385524706471191199,-0.21326637268066406,175.48189498484135,-22.72372473996078,14.693589755104405,8,195,0.0,16399,574584283515392,46,24.0,32.72099685668945,0.8689999580383301,16,0.0,0.0,1.57542003E9,,,,0,0.0,4,-54.66,1.57542003E9
Raw,72430455,41877945000000,18,0.0,-1385524706471191199,-0.21326637268066406,175.48189498484135,-22.72372473996078,14.693589755104405,8,196,0.0,16399,574584293319744,159,15.5,50.32316207885742,6.936000347137451,16,0.0,0.0,1.57542003E9,,,,0,0.0,4,-54.66,1.57542003E9
Raw,72430455,41877945000000,18,0.0,-1385524706471191199,-0.21326637268066406,175.48189498484135,-22.72372473996078,14.693589755104405,8,2,0.0,49359,66966342652410,35,26.3,-467.98358154296875,0.750499963760376,16,0.0,0.0,1.59975002E9,,,,0,0.0,3,-55.09,1.59975002E9
Raw,72430455,41877945000000,18,0.0,-1385524706471191199,-0.21326637268066406,175.48189498484135,-22.72372473996078,14.693589755104405,8,40,0.0,16399,574570294907490,70,22.0,-121.37855529785156,1.002500057220459,16,0.0,0.0,1.56109798E9,,,,0,0.0,5,-60.09,1.56109798E9
Raw,72430455,41877945000000,18,0.0,-1385524706471191199,-0.21326637268066406,175.48189498484135,-22.72372473996078,14.693589755104405,8,32,0.0,16399,574570336303231,31,27.8,-471.8602600097656,0.6694999933242798,16,0.0,0.0,1.56109798E9,,,,0,0.0,5,-60.09,1.56109798E9
Raw,72430456,41877945000000,18,0.0,-1385524706471191199,-0.21326637268066406,175.48189498484135,-22.72372473996078,14.693589755104405,8,27,0.0,16399,574570339543947,27,29.1,121.07129669189453,0.6050000190734863,16,0.0,0.0,1.56109798E9,,,,0,0.0,5,-60.09,1.56109798E9
Raw,72430456,41877945000000,18,0.0,-1385524706471191199,-0.21326637268066406,175.48189498484135,-22.72372473996078,14.693589755104405,8,36,0.0,23567,574584334157785,139,16.4,282.4433898925781,3.9184999465942383,16,0.0,0.0,1.57542003E9,,,,0,0.0,6,-58.46,1.57542003E9
Raw,72430456,41877945000000,18,0.0,-1385524706471191199,-0.21326637268066406,175.48189498484135,-22.72372473996078,14.693589755104405,8,27,0.0,16399,574570339543972,7,31.0,121.15451049804688,0.657526969909668,16,0.0,0.0,1.57542003E9,,,,0,0.0,5,-58.46,1.57542003E9
Raw,72430457,41877945000000,18,0.0,-1385524706471191199,-0.21326637268066406,175.48189498484135,-22.72372473996078,14.693589755104405,8,32,0.0,16399,574570336303227,8,29.5,-472.2945861816406,0.6714332103729248,16,0.0,0.0,1.57542003E9,,,,0,0.0,5,-58.46,1.57542003E9
Raw,72431425,41878945000000,18,0.0,-1385524706471191217,-0.6162004470825195,161.66326531674713,-17.951485844485646,13.777796023757585,8,3,0.0,16399,574585339624581,24,29.3,489.0765075683594,0.6918843388557434,16,0.0,0.0,1.57542003E9,,,,0,0.0,1,-54.53,1.57542003E9
Raw,72431425,41878945000000,18,0.0,-1385524706471191217,-0.6162004470825195,161.66326531674713,-17.951485844485646,13.777796023757585,8,6,0.0,16399,574585345340063,31,27.5,-113.64337921142578,0.6859999895095825,16,0.0,0.0,1.57542003E9,,,,0,0.0,1,-54.53,1.57542003E9
Raw,72431425,41878945000000,18,0.0,-1385524706471191217,-0.6162004470825195,161.66326531674713,-17.951485844485646,13.777796023757585,8,17,0.0,16399,574585344520367,35,26.2,-87.2686767578125,0.7475000023841858,16,0.0,0.0,1.57542003E9,,,,0,0.0,1,-54.53,1.57542003E9
Raw,72431426,41878945000000,18,0.0,-1385524706471191217,-0.6162004470825195,161.66326531674713,-17.951485844485646,13.777796023757585,8,195,0.0,16399,574585283515231,53,22.9,33.54877471923828,1.0190000534057617,16,0.0,0.0,1.57542003E9,,,,0,0.0,4,-54.53,1.57542003E9
Raw,72431426,41878945000000,18,0.0,-1385524706471191217,-0.6162004470825195,161.66326531674713,-17.951485844485646,13.777796023757585,8,2,0.0,49359,66967342653980,46,24.5,-465.716064453125,0.8704999685287476,16,0.0,0.0,1.59975002E9,,,,0,0.0,3,-54.87,1.59975002E9
Raw,72431426,41878945000000,18,0.0,-1385524706471191217,-0.6162004470825195,161.66326531674713,-17.951485844485646,13.777796023757585,8,32,0.0,16399,574571336304760,31,27.7,-470.7848205566406,0.6694999933242798,16,0.0,0.0,1.56109798E9,,,,0,0.0,5,-60.08,1.56109798E9
Raw,72431426,41878945000000,18,0.0,-1385524706471191217,-0.6162004470825195,161.66326531674713,-17.951485844485646,13.777796023757585,8,30,0.0,16399,574571337518451,159,15.5,-159.7096405029297,7.692000389099121,16,0.0,0.0,1.56109798E9,,,,0,0.0,5,-60.08,1.56109798E9
Raw,72431426,41878945000000,18,0.0,-1385524706471191217,-0.6162004470825195,161.66326531674713,-17.951485844485646,13.777796023757585,8,27,0.0,16399,574571339543538,27,29.2,123.07811737060547,0.6050000190734863,16,0.0,0.0,1.56109798E9,,,,0,0.0,5,-60.08,1.56109798E9
