# 
# Header Description:
# 
# Version: v3.10.3 (24097-osmdroid), Manufacturer: HONOR, Model: REA-AN00, GNSS HW Year: 2016, Platform: 13, API Level: 33 
# 
# Raw GNSS measurements format:
#   Raw,utcTimeMillis,TimeNanos,LeapSecond,TimeUncertaintyNanos,FullBiasNanos,BiasNanos,BiasUncertaintyNanos,DriftNanosPerSecond,DriftUncertaintyNanosPerSecond,HardwareClockDiscontinuityCount,Svid,TimeOffsetNanos,State,ReceivedSvTimeNanos,ReceivedSvTimeUncertaintyNanos,Cn0DbHz,PseudorangeRateMetersPerSecond,PseudorangeRateUncertaintyMetersPerSecond,AccumulatedDeltaRangeState,AccumulatedDeltaRangeMeters,AccumulatedDeltaRangeUncertaintyMeters,CarrierFrequencyHz,CarrierCycles,CarrierPhase,CarrierPhaseUncertainty,MultipathIndicator,SnrInDb,ConstellationType,AgcDb,BasebandCn0DbHz,FullInterSignalBiasNanos,FullInterSignalBiasUncertaintyNanos,SatelliteInterSignalBiasNanos,SatelliteInterSignalBiasUncertaintyNanos,CodeType,ChipsetElapsedRealtimeNanos
# 
# Location fix format:
#   Fix,Provider,LatitudeDegrees,LongitudeDegrees,AltitudeMeters,SpeedMps,AccuracyMeters,BearingDegrees,UnixTimeMillis,SpeedAccuracyMps,BearingAccuracyDegrees,elapsedRealtimeNanos,VerticalAccuracyMeters,MockLocation
# 
# Navigation message format:
#   Nav,Svid,Type,Status,MessageId,Sub-messageId,Data(Bytes)
# 
# NMEA format (for [NMEA sentence] format see https://en.wikipedia.org/wiki/NMEA_0183):
#   NMEA,[NMEA sentence],(UTC)TimeInMs
# 
# GnssAntennaInfo format (https://developer.android.com/reference/android/location/GnssAntennaInfo):
#   GnssAntennaInfo,CarrierFrequencyMHz,PhaseCenterOffsetXOffsetMm,PhaseCenterOffsetXOffsetUncertaintyMm,PhaseCenterOffsetYOffsetMm,PhaseCenterOffsetYOffsetUncertaintyMm,PhaseCenterOffsetZOffsetMm,PhaseCenterOffsetZOffsetUncertaintyMm,PhaseCenterVariationCorrectionsArray,PhaseCenterVariationCorrectionUncertaintiesArray,PhaseCenterVariationCorrectionsDeltaPhi,PhaseCenterVariationCorrectionsDeltaTheta,SignalGainCorrectionsArray,SignalGainCorrectionUncertaintiesArray,SignalGainCorrectionsDeltaPhi,SignalGainCorrectionsDeltaTheta
# 
# GnssStatus format (https://developer.android.com/reference/android/location/GnssStatus):
#   Status,UnixTimeMillis,SignalCount,SignalIndex,ConstellationType,Svid,CarrierFrequencyHz,Cn0DbHz,AzimuthDegrees,ElevationDegrees,UsedInFix,HasAlmanacData,HasEphemerisData,BasebandCn0DbHz
# Orientation sensor format (https://developer.android.com/reference/android/hardware/SensorEvent#values):
#   OrientationDeg,utcTimeMillis,elapsedRealtimeNanos,yawDeg,rollDeg,pitchDeg
Raw,74676012,1,,,,,,,,0,24,0.0,17,1,1,30.0,-700.0,1.0,1,1.0,1.0,1561097980,,,,0,,1,20.0,,,,,,,74676012875162
Raw,74681022,44159701000000,18,0.0,-1385524674896085225,-0.9546518325805664,1501398.6825942993,19.77614324792379,117.47447081429253,11,17,0.0,16399,576834525913038,17,31.6,-35.67054748535156,0.7604999542236328,16,0.0,0.0,1575420030,,,,0,0.0,1,-54.44,28.0,0.0,0.0,,,C,74681022472869
Raw,74681022,44159701000000,18,0.0,-1385524674896085225,-0.9546518325805664,1501398.6825942993,19.77614324792379,117.47447081429253,11,20,0.0,16399,576834519607224,31,26.8,-604.4298095703125,0.7579999566078186,16,0.0,0.0,1575420030,,,,0,0.0,1,-54.44,23.2,0.0,0.0,,,C,74681022733650
Raw,74681022,44159701000000,18,0.0,-1385524674896085225,-0.9546518325805664,1501398.6825942993,19.77614324792379,117.47447081429253,11,194,0.0,16399,576834476555345,31,27.1,-81.89288330078125,0.9275000095367432,16,0.0,0.0,1575420030,,,,0,0.0,4,-54.44,23.5,0.0,0.0,,,C,74681022843858
Raw,74681022,44159701000000,18,0.0,-1385524674896085225,-0.9546518325805664,1501398.6825942993,19.77614324792379,117.47447081429253,11,195,0.0,16399,576834464299270,21,30.5,-2.6545965671539307,0.7935000061988831,16,0.0,0.0,1575420030,,,,0,0.0,4,-54.44,26.9,0.0,0.0,,,C,74681022938806
Raw,74681023,44159701000000,18,0.0,-1385524674896085225,-0.9546518325805664,1501398.6825942993,19.77614324792379,117.47447081429253,11,196,0.0,16399,576834473690688,31,26.8,85.6987533569336,0.984499990940094,16,0.0,0.0,1575420030,,,,0,0.0,4,-54.44,23.2,0.0,0.0,,,C,74681023041150
Raw,74681023,44159701000000,18,0.0,-1385524674896085225,-0.9546518325805664,1501398.6825942993,19.77614324792379,117.47447081429253,11,2,0.0,49359,69216526212489,16,33.4,-220.2226104736328,0.6130000352859497,16,0.0,0.0,1599750020,,,,0,0.0,3,-55.4,29.4,3803.759521484375,22.178625106811523,,,C,74681023140213
Raw,74681023,44159701000000,18,0.0,-1385524674896085225,-0.9546518325805664,1501398.6825942993,19.77614324792379,117.47447081429253,11,16,0.0,49359,69216523118572,31,27.0,-415.7571716308594,0.8585000038146973,16,0.0,0.0,1601437440,,,,0,0.0,3,-55.4,23.0,3803.759521484375,22.178625106811523,,,C,74681023262296
Raw,74681023,44159701000000,18,0.0,-1385524674896085225,-0.9546518325805664,1501398.6825942993,19.77614324792379,117.47447081429253,11,3,0.0,49359,69216522957522,31,27.5,-673.6498413085938,0.8554999828338623,16,0.0,0.0,1604812540,,,,0,0.0,3,-55.4,23.5,3803.759521484375,22.178625106811523,,,C,74681023360108
Raw,74681023,44159701000000,18,0.0,-1385524674896085225,-0.9546518325805664,1501398.6825942993,19.77614324792379,117.47447081429253,11,59,0.0,16399,576820473397626,27,28.8,-9.861227989196777,3.2526001930236816,16,0.0,0.0,1561097980,,,,0,0.0,5,-60.08,24.5,-1562.8651123046875,19.843599319458008,,,I,74681023458338
Raw,74681023,44159701000000,18,0.0,-1385524674896085225,-0.9546518325805664,1501398.6825942993,19.77614324792379,117.47447081429253,11,40,0.0,16399,576820476608890,21,30.7,-91.0555191040039,50.29999923706055,16,0.0,0.0,1561097980,,,,0,0.0,5,-60.08,26.4,-1562.8651123046875,19.843599319458008,,,I,74681023556931
Raw,74681023,44159701000000,18,0.0,-1385524674896085225,-0.9546518325805664,1501398.6825942993,19.77614324792379,117.47447081429253,11,32,0.0,16399,576820520286480,16,34.1,-337.0101013183594,50.24599838256836,16,0.0,0.0,1561097980,,,,0,0.0,5,-60.08,29.8,-1562.8651123046875,19.843599319458008,,,I,74681023656411
Raw,74681023,44159701000000,18,0.0,-1385524674896085225,-0.9546518325805664,1501398.6825942993,19.77614324792379,117.47447081429253,11,27,0.0,16399,576820519500204,14,34.3,129.78990173339844,50.29100036621094,16,0.0,0.0,1561097980,,,,0,0.0,5,-60.08,29.999999999999996,-1562.8651123046875,19.843599319458008,,,I,74681023755265
Raw,74682045,44160701000000,18,0.0,-1385524674896082485,-0.9887361526489258,408.25860924087465,6.173044124729303,28.09035022106854,11,6,0.0,16399,576835526548641,46,24.4,22.454652786254883,1.2994999885559082,16,0.0,0.0,1575420030,,,,0,0.0,1,-54.25,20.799999999999997,0.0,0.0,,,C,74682045817087
Raw,74682046,44160701000000,18,0.0,-1385524674896082485,-0.9887361526489258,408.25860924087465,6.173044124729303,28.09035022106854,11,9,0.0,16399,576835517294155,9,39.4,-333.8429870605469,0.11330919712781906,16,0.0,0.0,1575420030,,,,0,0.0,1,-54.25,35.8,0.0,0.0,,,C,74682046049900
Raw,74682046,44160701000000,18,0.0,-1385524674896082485,-0.9887361526489258,408.25860924087465,6.173044124729303,28.09035022106854,11,11,0.0,16399,576835520869895,10,37.6,-259.30419921875,0.13939911127090454,16,0.0,0.0,1575420030,,,,0,0.0,1,-54.25,34.0,0.0,0.0,,,C,74682046292243
Raw,74682046,44160701000000,18,0.0,-1385524674896082485,-0.9887361526489258,408.25860924087465,6.173044124729303,28.09035022106854,11,17,0.0,16399,576835525913226,27,28.5,-36.31754684448242,1.13100004196167,16,0.0,0.0,1575420030,,,,0,0.0,1,-54.25,24.9,0.0,0.0,,,C,74682046410941
Raw,74682046,44160701000000,18,0.0,-1385524674896082485,-0.9887361526489258,408.25860924087465,6.173044124729303,28.09035022106854,11,20,0.0,16399,576835519609151,31,27.4,-603.906494140625,0.6949999928474426,16,0.0,0.0,1575420030,,,,0,0.0,1,-54.25,23.799999999999997,0.0,0.0,,,C,74682046519327
Raw,74682046,44160701000000,18,0.0,-1385524674896082485,-0.9887361526489258,408.25860924087465,6.173044124729303,28.09035022106854,11,195,0.0,16399,576835464299239,21,29.8,-3.672667980194092,1.0924999713897705,16,0.0,0.0,1575420030,,,,0,0.0,4,-54.25,26.2,0.0,0.0,,,C,74682046624483
Raw,74682046,44160701000000,18,0.0,-1385524674896082485,-0.9887361526489258,408.25860924087465,6.173044124729303,28.09035022106854,11,196,0.0,16399,576835473690364,10,37.7,86.49799346923828,0.8090000152587891,16,0.0,0.0,1575420030,,,,0,0.0,4,-54.25,34.1,0.0,0.0,,,C,74682046727608
Raw,74682046,44160701000000,18,0.0,-1385524674896082485,-0.9887361526489258,408.25860924087465,6.173044124729303,28.09035022106854,11,14,0.0,49359,69217523119177,35,26.9,758.2876586914062,2.0510001182556152,16,0.0,0.0,1598062460,,,,0,0.0,3,-55.01,22.9,3803.759521484375,22.178625106811523,,,C,74682046980525
Raw,74682047,44160701000000,18,0.0,-1385524674896082485,-0.9887361526489258,408.25860924087465,6.173044124729303,28.09035022106854,11,2,0.0,49359,69217526213286,14,34.6,-222.5276336669922,0.9295000433921814,16,0.0,0.0,1599750020,,,,0,0.0,3,-55.01,30.6,3803.759521484375,22.178625106811523,,,C,74682047102139
Raw,74682047,44160701000000,18,0.0,-1385524674896082485,-0.9887361526489258,408.25860924087465,6.173044124729303,28.09035022106854,11,16,0.0,49359,69217523119635,53,23.2,-409.6824035644531,1.4024999141693115,16,0.0,0.0,1601437440,,,,0,0.0,3,-55.01,19.2,3803.759521484375,22.178625106811523,,,C,74682047217296
Raw,74682047,44160701000000,18,0.0,-1385524674896082485,-0.9887361526489258,408.25860924087465,6.173044124729303,28.09035022106854,11,15,0.0,49359,69217529562026,31,27.8,270.9921569824219,2.0209999084472656,16,0.0,0.0,1602000000,,,,0,0.0,3,-55.01,23.8,3803.759521484375,22.178625106811523,,,C,74682047331462
Raw,74682047,44160701000000,18,0.0,-1385524674896082485,-0.9887361526489258,408.25860924087465,6.173044124729303,28.09035022106854,11,17,0.0,49359,69217525787674,46,24.2,109.78841400146484,1.7899999618530273,16,0.0,0.0,1604249980,,,,0,0.0,3,-55.01,20.2,3803.759521484375,22.178625106811523,,,C,74682047444952
Raw,74682047,44160701000000,18,0.0,-1385524674896082485,-0.9887361526489258,408.25860924087465,6.173044124729303,28.09035022106854,11,3,0.0,49359,69217522959792,17,32.2,-674.2008666992188,1.005500078201294,16,0.0,0.0,1604812540,,,,0,0.0,3,-55.01,28.200000000000003,3803.759521484375,22.178625106811523,,,C,74682047556410
Raw,74682047,44160701000000,18,0.0,-1385524674896082485,-0.9887361526489258,408.25860924087465,6.173044124729303,28.09035022106854,11,60,0.0,16399,576821472180158,139,17.0,-5.079444885253906,10.628600120544434,16,0.0,0.0,1561097980,,,,0,0.0,5,-59.91,12.7,-1562.8651123046875,19.843599319458008,,,I,74682047672348
Raw,74682047,44160701000000,18,0.0,-1385524674896082485,-0.9887361526489258,408.25860924087465,6.173044124729303,28.09035022106854,11,59,0.0,16399,576821473397660,35,27.2,-9.064264297485352,4.643099784851074,16,0.0,0.0,1561097980,,,,0,0.0,5,-59.91,22.9,-1562.8651123046875,19.843599319458008,,,I,74682047794587
Raw,74682047,44160701000000,18,0.0,-1385524674896082485,-0.9887361526489258,408.25860924087465,6.173044124729303,28.09035022106854,11,36,0.0,16399,576821516698678,19,31.3,10.014860153198242,0.9945000410079956,16,0.0,0.0,1561097980,,,,0,0.0,5,-59.91,27.0,-1562.8651123046875,19.843599319458008,,,I,74682047906358
Raw,74682048,44160701000000,18,0.0,-1385524674896082485,-0.9887361526489258,408.25860924087465,6.173044124729303,28.09035022106854,11,4,0.0,16399,576821469271195,14,34.4,0.19203948974609375,1.531599998474121,16,0.0,0.0,1561097980,,,,0,0.0,5,-59.91,30.099999999999998,-1562.8651123046875,19.843599319458008,,,I,74682048016098
Raw,74682048,44160701000000,18,0.0,-1385524674896082485,-0.9887361526489258,408.25860924087465,6.173044124729303,28.09035022106854,11,1,0.0,16399,576821473593449,31,27.8,-0.4416908025741577,4.61460018157959,16,0.0,0.0,1561097980,,,,0,0.0,5,-59.91,23.5,-1562.8651123046875,19.843599319458008,,,I,74682048154223
Raw,74682048,44160701000000,18,0.0,-1385524674896082485,-0.9887361526489258,408.25860924087465,6.173044124729303,28.09035022106854,11,2,0.0,23567,576835518895929,40,25.4,158.42898559570312,1.131500005722046,16,0.0,0.0,1575420030,,,,0,0.0,6,-57.99,21.099999999999998,-1465.2379150390625,20.80209732055664,,,C,74682048267764
Raw,74682048,44160701000000,18,0.0,-1385524674896082485,-0.9887361526489258,408.25860924087465,6.173044124729303,28.09035022106854,11,5,0.0,23567,576835511525906,40,26.2,-373.5559997558594,1.0759999752044678,16,0.0,0.0,1575420030,,,,0,0.0,6,-57.99,21.9,-1465.2379150390625,20.80209732055664,,,C,74682048378077
Raw,74682048,44160701000000,18,0.0,-1385524674896082485,-0.9887361526489258,408.25860924087465,6.173044124729303,28.09035022106854,11,30,0.0,23567,576835511900294,46,24.3,-338.25653076171875,1.1690000295639038,16,0.0,0.0,1575420030,,,,0,0.0,6,-57.99,20.0,-1465.2379150390625,20.80209732055664,,,C,74682048503285
Raw,74683412,44162521000000,18,0.0,-1385524674896082564,-0.6966695785522461,174.1094747558236,16.00510625268288,11.986522832785269,11,6,0.0,16399,576837346548855,61,22.5,21.132112503051758,1.5605000257492065,16,0.0,0.0,1575420030,,,,0,0.0,1,-54.53,18.9,0.0,0.0,,,C,74683412392972
Raw,74683414,44162521000000,18,0.0,-1385524674896082564,-0.6966695785522461,174.1094747558236,16.00510625268288,11.986522832785269,11,9,0.0,16399,576837337296169,11,36.6,-335.0836181640625,0.5955793261528015,16,0.0,0.0,1575420030,,,,0,0.0,1,-54.53,33.0,0.0,0.0,,,C,74683414455160
Raw,74683414,44162521000000,18,0.0,-1385524674896082564,-0.6966695785522461,174.1094747558236,16.00510625268288,11.986522832785269,11,11,0.0,16399,576837340871483,16,33.0,-260.55535888671875,1.19966721534729,16,0.0,0.0,1575420030,,,,0,0.0,1,-54.53,29.4,0.0,0.0,,,C,74683414678910
Raw,74683414,44162521000000,18,0.0,-1385524674896082564,-0.6966695785522461,174.1094747558236,16.00510625268288,11.986522832785269,11,17,0.0,16399,576837345913201,19,30.9,-37.60293960571289,2.9161136150360107,16,0.0,0.0,1575420030,,,,0,0.0,1,-54.53,27.299999999999997,0.0,0.0,,,C,74683414787868
Raw,74683414,44162521000000,18,0.0,-1385524674896082564,-0.6966695785522461,174.1094747558236,16.00510625268288,11.986522832785269,11,19,0.0,16399,576837347068437,21,30.0,-221.7425079345703,2.4746150970458984,16,0.0,0.0,1575420030,,,,0,0.0,1,-54.53,26.4,0.0,0.0,,,C,74683414894378
Raw,74683414,44162521000000,18,0.0,-1385524674896082564,-0.6966695785522461,174.1094747558236,16.00510625268288,11.986522832785269,11,20,0.0,16399,576837339612810,24,29.4,-605.029052734375,2.404527425765991,16,0.0,0.0,1575420030,,,,0,0.0,1,-54.53,25.799999999999997,0.0,0.0,,,C,74683414994639
Raw,74683415,44162521000000,18,0.0,-1385524674896082564,-0.6966695785522461,174.1094747558236,16.00510625268288,11.986522832785269,11,22,0.0,16399,576837348193975,53,22.8,203.3192901611328,1.0115000009536743,16,0.0,0.0,1575420030,,,,0,0.0,1,-54.53,19.2,0.0,0.0,,,C,74683415112920
Raw,74683415,44162521000000,18,0.0,-1385524674896082564,-0.6966695785522461,174.1094747558236,16.00510625268288,11.986522832785269,11,194,0.0,16399,576837296556139,11,36.7,-82.94976806640625,0.026198336854577065,16,0.0,0.0,1575420030,,,,0,0.0,4,-54.53,33.1,0.0,0.0,,,C,74683415230368
Raw,74683415,44162521000000,18,0.0,-1385524674896082564,-0.6966695785522461,174.1094747558236,16.00510625268288,11.986522832785269,11,195,0.0,16399,576837284299356,17,32.5,-5.845114231109619,0.6241754293441772,16,0.0,0.0,1575420030,,,,0,0.0,4,-54.53,28.9,0.0,0.0,,,C,74683415370316
Raw,74683415,44162521000000,18,0.0,-1385524674896082564,-0.6966695785522461,174.1094747558236,16.00510625268288,11.986522832785269,11,196,0.0,16399,576837293689883,11,37.5,85.08598327636719,0.03069833666086197,16,0.0,0.0,1575420030,,,,0,0.0,4,-54.53,33.9,0.0,0.0,,,C,74683415469170
Raw,74683415,44162521000000,18,0.0,-1385524674896082564,-0.6966695785522461,174.1094747558236,16.00510625268288,11.986522832785269,11,14,0.0,49359,69219343114628,46,24.1,754.3106079101562,0.8689999580383301,16,0.0,0.0,1598062460,,,,0,0.0,3,-55.57,20.1,3803.759521484375,22.178625106811523,,,C,74683415692451
Raw,74683415,44162521000000,18,0.0,-1385524674896082564,-0.6966695785522461,174.1094747558236,16.00510625268288,11.986522832785269,11,2,0.0,49359,69219346214681,16,33.8,-222.01229858398438,0.04868615046143532,16,0.0,0.0,1599750020,,,,0,0.0,3,-55.57,29.799999999999997,3803.759521484375,22.178625106811523,,,C,74683415794899
Raw,74683415,44162521000000,18,0.0,-1385524674896082564,-0.6966695785522461,174.1094747558236,16.00510625268288,11.986522832785269,11,16,0.0,49359,69219343122599,27,28.9,-411.2643127441406,0.6389999985694885,16,0.0,0.0,1601437440,,,,0,0.0,3,-55.57,24.9,3803.759521484375,22.178625106811523,,,C,74683415915316
Raw,74683416,44162521000000,18,0.0,-1385524674896082564,-0.6966695785522461,174.1094747558236,16.00510625268288,11.986522832785269,11,15,0.0,49359,69219349560317,13,35.8,266.9718933105469,1.722480058670044,16,0.0,0.0,1602000000,,,,0,0.0,3,-55.57,31.799999999999997,3803.759521484375,22.178625106811523,,,C,74683416032035
Raw,74683416,44162521000000,18,0.0,-1385524674896082564,-0.6966695785522461,174.1094747558236,16.00510625268288,11.986522832785269,11,24,0.0,49359,69219338503616,31,27.4,296.14117431640625,0.6664999723434448,16,0.0,0.0,1603124990,,,,0,0.0,3,-55.57,23.4,3803.759521484375,22.178625106811523,,,C,74683416612087
Raw,74683416,44162521000000,18,0.0,-1385524674896082564,-0.6966695785522461,174.1094747558236,16.00510625268288,11.986522832785269,11,17,0.0,49359,69219345787338,24,29.1,107.84550476074219,4.595610618591309,16,0.0,0.0,1604249980,,,,0,0.0,3,-55.57,25.1,3803.759521484375,22.178625106811523,,,C,74683416759899
Raw,74683416,44162521000000,18,0.0,-1385524674896082564,-0.6966695785522461,174.1094747558236,16.00510625268288,11.986522832785269,11,3,0.0,49359,69219342963874,6,43.5,-676.0821533203125,0.04373178631067276,16,0.0,0.0,1604812540,,,,0,0.0,3,-55.57,39.5,3803.759521484375,22.178625106811523,,,C,74683416857764
Raw,74683416,44162521000000,18,0.0,-1385524674896082564,-0.6966695785522461,174.1094747558236,16.00510625268288,11.986522832785269,11,59,0.0,16399,576823293397669,9,39.5,-1.8147730827331543,1.0297999382019043,16,0.0,0.0,1561097980,,,,0,0.0,5,-60.08,35.2,-1562.8651123046875,19.843599319458008,,,I,74683416972712
Raw,74683417,44162521000000,18,0.0,-1385524674896082564,-0.6966695785522461,174.1094747558236,16.00510625268288,11.986522832785269,11,46,0.0,16399,576823338306654,31,28.2,416.65850830078125,0.7065000534057617,16,0.0,0.0,1561097980,,,,0,0.0,5,-60.08,23.9,-1562.8651123046875,19.843599319458008,,,I,74683417068128
Raw,74683417,44162521000000,18,0.0,-1385524674896082564,-0.6966695785522461,174.1094747558236,16.00510625268288,11.986522832785269,11,40,0.0,16399,576823296609721,24,30.2,-93.18716430664062,0.9495000243186951,16,0.0,0.0,1561097980,,,,0,0.0,5,-60.08,25.9,-1562.8651123046875,19.843599319458008,,,I,74683417169743
Raw,74683417,44162521000000,18,0.0,-1385524674896082564,-0.6966695785522461,174.1094747558236,16.00510625268288,11.986522832785269,11,36,0.0,16399,576823336698662,27,28.9,8.872224807739258,0.6195000410079956,16,0.0,0.0,1561097980,,,,0,0.0,5,-60.08,24.599999999999998,-1562.8651123046875,19.843599319458008,,,I,74683417346930
Raw,74683417,44162521000000,18,0.0,-1385524674896082564,-0.6966695785522461,174.1094747558236,16.00510625268288,11.986522832785269,11,32,0.0,16399,576823340289615,7,42.0,-338.3253173828125,2.3372180461883545,16,0.0,0.0,1561097980,,,,0,0.0,5,-60.08,37.7,-1562.8651123046875,19.843599319458008,,,I,74683417457972
Raw,74683417,44162521000000,18,0.0,-1385524674896082564,-0.6966695785522461,174.1094747558236,16.00510625268288,11.986522832785269,11,28,0.0,16399,576823329728692,35,26.6,278.4764709472656,0.7400000095367432,16,0.0,0.0,1561097980,,,,0,0.0,5,-60.08,22.3,-1562.8651123046875,19.843599319458008,,,I,74683417560733
Raw,74683417,44162521000000,18,0.0,-1385524674896082564,-0.6966695785522461,174.1094747558236,16.00510625268288,11.986522832785269,11,27,0.0,16399,576823339498942,14,34.7,127.8383560180664,1.7379381656646729,16,0.0,0.0,1561097980,,,,0,0.0,5,-60.08,30.400000000000002,-1562.8651123046875,19.843599319458008,,,I,74683417661722
Raw,74683417,44162521000000,18,0.0,-1385524674896082564,-0.6966695785522461,174.1094747558236,16.00510625268288,11.986522832785269,11,13,0.0,16399,576823294903487,27,28.7,-59.925926208496094,1.027500033378601,16,0.0,0.0,1561097980,,,,0,0.0,5,-60.08,24.4,-1562.8651123046875,19.843599319458008,,,I,74683417766722
Raw,74683417,44162521000000,18,0.0,-1385524674896082564,-0.6966695785522461,174.1094747558236,16.00510625268288,11.986522832785269,11,4,0.0,16399,576823289271161,14,35.2,0.03840789943933487,1.360700011253357,16,0.0,0.0,1561097980,,,,0,0.0,5,-60.08,30.900000000000002,-1562.8651123046875,19.843599319458008,,,I,74683417865993
Raw,74683417,44162521000000,18,0.0,-1385524674896082564,-0.6966695785522461,174.1094747558236,16.00510625268288,11.986522832785269,11,1,0.0,16399,576823293593507,16,34.1,-0.12482567876577377,1.6216000318527222,16,0.0,0.0,1561097980,,,,0,0.0,5,-60.08,29.8,-1562.8651123046875,19.843599319458008,,,I,74683417987087
Raw,74683418,44162521000000,18,0.0,-1385524674896082564,-0.6966695785522461,174.1094747558236,16.00510625268288,11.986522832785269,11,2,0.0,23567,576837338894934,21,30.7,156.88818359375,0.0476054847240448,16,0.0,0.0,1575420030,,,,0,0.0,6,-58.23,26.4,-1465.2379150390625,20.80209732055664,,,C,74683418120368
Raw,74683418,44162521000000,18,0.0,-1385524674896082564,-0.6966695785522461,174.1094747558236,16.00510625268288,11.986522832785269,11,5,0.0,23567,576837331528274,11,37.8,-375.2032165527344,0.03069833666086197,16,0.0,0.0,1575420030,,,,0,0.0,6,-58.23,33.5,-1465.2379150390625,20.80209732055664,,,C,74683418222243
Raw,74683418,44162521000000,18,0.0,-1385524674896082564,-0.6966695785522461,174.1094747558236,16.00510625268288,11.986522832785269,11,25,0.0,23567,576837330677471,17,32.4,524.7996826171875,0.07090715318918228,16,0.0,0.0,1575420030,,,,0,0.0,6,-58.23,28.099999999999998,-1465.2379150390625,20.80209732055664,,,C,74683418336878
Raw,74683419,44162521000000,18,0.0,-1385524674896082564,-0.6966695785522461,174.1094747558236,16.00510625268288,11.986522832785269,11,30,0.0,23567,576837331902346,40,25.6,-339.8406982421875,0.8100443482398987,16,0.0,0.0,1575420030,,,,0,0.0,6,-58.23,21.3,-1465.2379150390625,20.80209732055664,,,C,74683419467660
Raw,74683419,44162521000000,18,0.0,-1385524674896082564,-0.6966695785522461,174.1094747558236,16.00510625268288,11.986522832785269,11,36,0.0,23567,576837332860782,53,24.0,289.56036376953125,0.9544999599456787,16,0.0,0.0,1575420030,,,,0,0.0,6,-58.23,19.7,-1465.2379150390625,20.80209732055664,,,C,74683419608441
Raw,74684412,44163521000000,18,0.0,-1385524674896082522,-0.4220752716064453,124.76558913476765,11.833753756277964,10.523686256629663,11,6,0.0,16399,576838346548368,53,23.4,19.71442413330078,0.934499979019165,16,0.0,0.0,1575420030,,,,0,0.0,1,-55.02,19.799999999999997,0.0,0.0,,,C,74684412282711
Raw,74684412,44163521000000,18,0.0,-1385524674896082522,-0.4220752716064453,124.76558913476765,11.833753756277964,10.523686256629663,11,9,0.0,16399,576838337297261,8,39.8,-335.6107482910156,0.022700253874063492,16,0.0,0.0,1575420030,,,,0,0.0,1,-55.02,36.199999999999996,0.0,0.0,,,C,74684412387711
Raw,74684412,44163521000000,18,0.0,-1385524674896082522,-0.4220752716064453,124.76558913476765,11.833753756277964,10.523686256629663,11,11,0.0,16399,576838340872246,24,28.6,-260.9381103515625,1.8321462869644165,16,0.0,0.0,1575420030,,,,0,0.0,1,-55.02,25.0,0.0,0.0,,,C,74684412437815
Raw,74684412,44163521000000,18,0.0,-1385524674896082522,-0.4220752716064453,124.76558913476765,11.833753756277964,10.523686256629663,11,14,0.0,16399,576838345909681,61,21.6,515.4960327148438,1.2009999752044678,16,0.0,0.0,1575420030,,,,0,0.0,1,-55.02,18.0,0.0,0.0,,,C,74684412474170
Raw,74684412,44163521000000,18,0.0,-1385524674896082522,-0.4220752716064453,124.76558913476765,11.833753756277964,10.523686256629663,11,17,0.0,16399,576838345913444,16,33.4,-37.81833267211914,0.05040523409843445,16,0.0,0.0,1575420030,,,,0,0.0,1,-55.02,29.799999999999997,0.0,0.0,,,C,74684412500940
Raw,74684412,44163521000000,18,0.0,-1385524674896082522,-0.4220752716064453,124.76558913476765,11.833753756277964,10.523686256629663,11,20,0.0,16399,576838339614989,31,27.4,-606.1900024414062,0.6949999928474426,16,0.0,0.0,1575420030,,,,0,0.0,1,-55.02,23.799999999999997,0.0,0.0,,,C,74684412531409
Raw,74684412,44163521000000,18,0.0,-1385524674896082522,-0.4220752716064453,124.76558913476765,11.833753756277964,10.523686256629663,11,22,0.0,16399,576838348193347,31,27.1,201.94915771484375,0.6814999580383301,16,0.0,0.0,1575420030,,,,0,0.0,1,-55.02,23.5,0.0,0.0,,,C,74684412558961
Raw,74684412,44163521000000,18,0.0,-1385524674896082522,-0.4220752716064453,124.76558913476765,11.833753756277964,10.523686256629663,11,30,0.0,16399,576838332601167,53,23.2,382.8613586425781,1.0304999351501465,16,0.0,0.0,1575420030,,,,0,0.0,1,-55.02,19.599999999999998,0.0,0.0,,,C,74684412583388
Raw,74684412,44163521000000,18,0.0,-1385524674896082522,-0.4220752716064453,124.76558913476765,11.833753756277964,10.523686256629663,11,194,0.0,16399,576838296556527,17,31.8,-83.36642456054688,0.03529437631368637,16,0.0,0.0,1575420030,,,,0,0.0,4,-55.02,28.2,0.0,0.0,,,C,74684412732868
Raw,74684412,44163521000000,18,0.0,-1385524674896082522,-0.4220752716064453,124.76558913476765,11.833753756277964,10.523686256629663,11,195,0.0,16399,576838284299349,12,36.3,-6.3090128898620605,0.044997572898864746,16,0.0,0.0,1575420030,,,,0,0.0,4,-55.02,32.699999999999996,0.0,0.0,,,C,74684412786461
Raw,74684412,44163521000000,18,0.0,-1385524674896082522,-0.4220752716064453,124.76558913476765,11.833753756277964,10.523686256629663,11,196,0.0,16399,576838293689609,9,39.5,84.66072082519531,0.029309194535017014,16,0.0,0.0,1575420030,,,,0,0.0,4,-55.02,35.9,0.0,0.0,,,C,74684412827295
Raw,74684412,44163521000000,18,0.0,-1385524674896082522,-0.4220752716064453,124.76558913476765,11.833753756277964,10.523686256629663,11,14,0.0,49359,69220343112069,46,24.5,753.6727905273438,0.8689999580383301,16,0.0,0.0,1598062460,,,,0,0.0,3,-55.73,20.5,3803.759521484375,22.178625106811523,,,C,74684412854951
Raw,74684412,44163521000000,18,0.0,-1385524674896082522,-0.4220752716064453,124.76558913476765,11.833753756277964,10.523686256629663,11,2,0.0,49359,69220346215696,27,28.5,-222.04037475585938,0.6345000267028809,16,0.0,0.0,1599750020,,,,0,0.0,3,-55.73,24.5,3803.759521484375,22.178625106811523,,,C,74684412882138
Raw,74684412,44163521000000,18,0.0,-1385524674896082522,-0.4220752716064453,124.76558913476765,11.833753756277964,10.523686256629663,11,16,0.0,49359,69220343123788,24,29.9,-411.5446472167969,1.2369811534881592,16,0.0,0.0,1601437440,,,,0,0.0,3,-55.73,25.9,3803.759521484375,22.178625106811523,,,C,74684412906878
Raw,74684412,44163521000000,18,0.0,-1385524674896082522,-0.4220752716064453,124.76558913476765,11.833753756277964,10.523686256629663,11,15,0.0,49359,69220349559450,19,31.5,267.03424072265625,0.5099999904632568,16,0.0,0.0,1602000000,,,,0,0.0,3,-55.73,27.5,3803.759521484375,22.178625106811523,,,C,74684412932451
Raw,74684412,44163521000000,18,0.0,-1385524674896082522,-0.4220752716064453,124.76558913476765,11.833753756277964,10.523686256629663,11,24,0.0,49359,69220338502721,35,26.8,295.74847412109375,0.7264999747276306,16,0.0,0.0,1603124990,,,,0,0.0,3,-55.73,22.8,3803.759521484375,22.178625106811523,,,C,74684412957503
Raw,74684412,44163521000000,18,0.0,-1385524674896082522,-0.4220752716064453,124.76558913476765,11.833753756277964,10.523686256629663,11,17,0.0,49359,69220345787274,35,26.9,107.4524917602539,0.7459999918937683,16,0.0,0.0,1604249980,,,,0,0.0,3,-55.73,22.9,3803.759521484375,22.178625106811523,,,C,74684412982659
Raw,74684413,44163521000000,18,0.0,-1385524674896082522,-0.4220752716064453,124.76558913476765,11.833753756277964,10.523686256629663,11,3,0.0,49359,69220342966110,9,39.2,-676.58984375,0.045711953192949295,16,0.0,0.0,1604812540,,,,0,0.0,3,-55.73,35.2,3803.759521484375,22.178625106811523,,,C,74684413009899
Raw,74684413,44163521000000,18,0.0,-1385524674896082522,-0.4220752716064453,124.76558913476765,11.833753756277964,10.523686256629663,11,59,0.0,16399,576824293397702,6,42.6,-2.622767448425293,0.6070577502250671,16,0.0,0.0,1561097980,,,,0,0.0,5,-60.24,38.300000000000004,-1562.8651123046875,19.843599319458008,,,I,74684413038961
Raw,74684413,44163521000000,18,0.0,-1385524674896082522,-0.4220752716064453,124.76558913476765,11.833753756277964,10.523686256629663,11,46,0.0,16399,576824338305302,53,23.8,416.4280090332031,1.003499984741211,16,0.0,0.0,1561097980,,,,0,0.0,5,-60.24,19.5,-1562.8651123046875,19.843599319458008,,,I,74684413064170
Raw,74684413,44163521000000,18,0.0,-1385524674896082522,-0.4220752716064453,124.76558913476765,11.833753756277964,10.523686256629663,11,40,0.0,16399,576824296610118,19,31.9,-93.44329071044922,4.078273773193359,16,0.0,0.0,1561097980,,,,0,0.0,5,-60.24,27.599999999999998,-1562.8651123046875,19.843599319458008,,,I,74684413100315
Raw,74684413,44163521000000,18,0.0,-1385524674896082522,-0.4220752716064453,124.76558913476765,11.833753756277964,10.523686256629663,11,36,0.0,16399,576824336698630,19,31.5,8.540769577026367,0.045444536954164505,16,0.0,0.0,1561097980,,,,0,0.0,5,-60.24,27.2,-1562.8651123046875,19.843599319458008,,,I,74684413131149
Raw,74684413,44163521000000,18,0.0,-1385524674896082522,-0.4220752716064453,124.76558913476765,11.833753756277964,10.523686256629663,11,32,0.0,16399,576824340290751,5,46.2,-338.88250732421875,0.04622696340084076,16,0.0,0.0,1561097980,,,,0,0.0,5,-60.24,41.900000000000006,-1562.8651123046875,19.843599319458008,,,I,74684413159013
Raw,74684413,44163521000000,18,0.0,-1385524674896082522,-0.4220752716064453,124.76558913476765,11.833753756277964,10.523686256629663,11,27,0.0,16399,576824339498530,7,41.7,127.25994110107422,0.049244076013565063,16,0.0,0.0,1561097980,,,,0,0.0,5,-60.24,37.400000000000006,-1562.8651123046875,19.843599319458008,,,I,74684413187763
Raw,74684413,44163521000000,18,0.0,-1385524674896082522,-0.4220752716064453,124.76558913476765,11.833753756277964,10.523686256629663,11,20,0.0,16399,576824331997636,27,28.3,-603.368896484375,0.7320000529289246,16,0.0,0.0,1561097980,,,,0,0.0,5,-60.24,24.0,-1562.8651123046875,19.843599319458008,,,I,74684413218857
Raw,74684413,44163521000000,18,0.0,-1385524674896082522,-0.4220752716064453,124.76558913476765,11.833753756277964,10.523686256629663,11,16,0.0,16399,576824280814944,46,25.0,134.66769409179688,0.9185000061988831,16,0.0,0.0,1561097980,,,,0,0.0,5,-60.24,20.7,-1562.8651123046875,19.843599319458008,,,I,74684413245003
Raw,74684413,44163521000000,18,0.0,-1385524674896082522,-0.4220752716064453,124.76558913476765,11.833753756277964,10.523686256629663,11,13,0.0,16399,576824294903697,61,23.2,-59.272987365722656,0.92249995470047,16,0.0,0.0,1561097980,,,,0,0.0,5,-60.24,18.9,-1562.8651123046875,19.843599319458008,,,I,74684413320315
Raw,74684413,44163521000000,18,0.0,-1385524674896082522,-0.4220752716064453,124.76558913476765,11.833753756277964,10.523686256629663,11,7,0.0,16399,576824297049191,40,25.9,-62.88333511352539,0.8930000066757202,16,0.0,0.0,1561097980,,,,0,0.0,5,-60.24,21.599999999999998,-1562.8651123046875,19.843599319458008,,,I,74684413352243
Raw,74684413,44163521000000,18,0.0,-1385524674896082522,-0.4220752716064453,124.76558913476765,11.833753756277964,10.523686256629663,11,6,0.0,16399,576824281118964,35,26.4,155.99366760253906,0.8569999933242798,16,0.0,0.0,1561097980,,,,0,0.0,5,-60.24,22.099999999999998,-1562.8651123046875,19.843599319458008,,,I,74684413379378
Raw,74684413,44163521000000,18,0.0,-1385524674896082522,-0.4220752716064453,124.76558913476765,11.833753756277964,10.523686256629663,11,4,0.0,16399,576824289271174,19,32.2,-6.538944244384766,1.8282999992370605,16,0.0,0.0,1561097980,,,,0,0.0,5,-60.24,27.900000000000002,-1562.8651123046875,19.843599319458008,,,I,74684413408545
Raw,74684413,44163521000000,18,0.0,-1385524674896082522,-0.4220752716064453,124.76558913476765,11.833753756277964,10.523686256629663,11,2,0.0,16399,576824293031828,35,27.1,-2.7941746711730957,4.407599925994873,16,0.0,0.0,1561097980,,,,0,0.0,5,-60.24,22.8,-1562.8651123046875,19.843599319458008,,,I,74684413433545
Raw,74684413,44163521000000,18,0.0,-1385524674896082522,-0.4220752716064453,124.76558913476765,11.833753756277964,10.523686256629663,11,1,0.0,16399,576824293593542,12,36.6,-0.835371732711792,1.2648999691009521,16,0.0,0.0,1561097980,,,,0,0.0,5,-60.24,32.300000000000004,-1562.8651123046875,19.843599319458008,,,I,74684413461357
Raw,74684413,44163521000000,18,0.0,-1385524674896082522,-0.4220752716064453,124.76558913476765,11.833753756277964,10.523686256629663,11,2,0.0,23567,576838338894401,31,28.0,156.7380828857422,2.3351588249206543,16,0.0,0.0,1575420030,,,,0,0.0,6,-58.76,23.7,-1465.2379150390625,20.80209732055664,,,C,74684413485888
Raw,74684413,44163521000000,18,0.0,-1385524674896082522,-0.4220752716064453,124.76558913476765,11.833753756277964,10.523686256629663,11,3,0.0,23567,576838321616737,53,24.0,-316.7533264160156,0.8930000066757202,16,0.0,0.0,1575420030,,,,0,0.0,6,-58.76,19.7,-1465.2379150390625,20.80209732055664,,,C,74684413510940
Raw,74684413,44163521000000,18,0.0,-1385524674896082522,-0.4220752716064453,124.76558913476765,11.833753756277964,10.523686256629663,11,5,0.0,23567,576838331529590,14,34.4,-375.54852294921875,0.033514685928821564,16,0.0,0.0,1575420030,,,,0,0.0,6,-58.76,30.099999999999998,-1465.2379150390625,20.80209732055664,,,C,74684413640003
Raw,74684413,44163521000000,18,0.0,-1385524674896082522,-0.4220752716064453,124.76558913476765,11.833753756277964,10.523686256629663,11,25,0.0,23567,576838330675700,35,27.0,524.6871948242188,0.7084999680519104,16,0.0,0.0,1575420030,,,,0,0.0,6,-58.76,22.7,-1465.2379150390625,20.80209732055664,,,C,74684413689899
Raw,74684413,44163521000000,18,0.0,-1385524674896082522,-0.4220752716064453,124.76558913476765,11.833753756277964,10.523686256629663,11,34,0.0,23567,576838335590002,40,25.6,27.20248031616211,0.8359999656677246,16,0.0,0.0,1575420030,,,,0,0.0,6,-58.76,21.3,-1465.2379150390625,20.80209732055664,,,C,74684413718180
Raw,74684413,44163521000000,18,0.0,-1385524674896082522,-0.4220752716064453,124.76558913476765,11.833753756277964,10.523686256629663,11,36,0.0,23567,576838332859550,80,20.9,289.5032653808594,1.2055000066757202,16,0.0,0.0,1575420030,,,,0,0.0,6,-58.76,16.599999999999998,-1465.2379150390625,20.80209732055664,,,C,74684413751670
Raw,74684413,44163521000000,18,0.0,-1385524674896082522,-0.4220752716064453,124.76558913476765,11.833753756277964,10.523686256629663,11,20,0.0,16399,576824331997665,6,33.2,-603.4116821289062,0.5820000171661377,16,0.0,0.0,1575420030,,,,0,0.0,5,-58.76,26.200000000000003,-1578.20263671875,259.3370666503906,,,P,74684413777659
Raw,74684413,44163521000000,18,0.0,-1385524674896082522,-0.4220752716064453,124.76558913476765,11.833753756277964,10.523686256629663,11,27,0.0,16399,576824339498560,3,40.4,127.28743743896484,0.36500000953674316,16,0.0,0.0,1575420030,,,,0,0.0,5,-58.76,33.4,-1578.20263671875,259.3370666503906,,,P,74684413812034
Raw,74684413,44163521000000,18,0.0,-1385524674896082522,-0.4220752716064453,124.76558913476765,11.833753756277964,10.523686256629663,11,30,0.0,16399,576824339562260,14,24.7,-152.9675750732422,1.0550000667572021,16,0.0,0.0,1575420030,,,,0,0.0,5,-58.76,17.7,-1578.20263671875,259.3370666503906,,,P,74684413839690
Raw,74684413,44163521000000,18,0.0,-1385524674896082522,-0.4220752716064453,124.76558913476765,11.833753756277964,10.523686256629663,11,32,0.0,16399,576824340290768,2,48.0,-338.7798156738281,0.23350000381469727,16,0.0,0.0,1575420030,,,,0,0.0,5,-58.76,41.0,-1578.20263671875,259.3370666503906,,,P,74684413864586
Raw,74684413,44163521000000,18,0.0,-1385524674896082522,-0.4220752716064453,124.76558913476765,11.833753756277964,10.523686256629663,11,36,0.0,16399,576824336698591,6,33.6,8.601274490356445,0.5744999647140503,16,0.0,0.0,1575420030,,,,0,0.0,5,-58.76,26.6,-1578.20263671875,259.3370666503906,,,P,74684413891826
Raw,74684413,44163521000000,18,0.0,-1385524674896082522,-0.4220752716064453,124.76558913476765,11.833753756277964,10.523686256629663,11,40,0.0,16399,576824296610028,8,30.0,-93.67205810546875,0.7144999504089355,16,0.0,0.0,1575420030,,,,0,0.0,5,-58.76,23.0,-1578.20263671875,259.3370666503906,,,P,74684413915732
Raw,74684413,44163521000000,18,0.0,-1385524674896082522,-0.4220752716064453,124.76558913476765,11.833753756277964,10.523686256629663,11,46,0.0,16399,576824338305221,5,34.0,415.9153747558594,0.5414999723434448,16,0.0,0.0,1575420030,,,,0,0.0,5,-58.76,27.0,-1578.20263671875,259.3370666503906,,,P,74684413942763
Raw,74685393,44164521000000,18,0.0,-1385524674896082491,-0.49471521377563477,115.73954543564469,10.596207728228096,12.1105902982608,11,6,0.0,16399,576839346548627,53,23.3,16.679241180419922,0.934499979019165,16,0.0,0.0,1575420030,,,,0,0.0,1,-55.02,19.7,0.0,0.0,,,C,74685393902815
Raw,74685394,44164521000000,18,0.0,-1385524674896082491,-0.49471521377563477,115.73954543564469,10.596207728228096,12.1105902982608,11,9,0.0,16399,576839337298393,12,36.2,-338.3180847167969,0.025497570633888245,16,0.0,0.0,1575420030,,,,0,0.0,1,-55.02,32.6,0.0,0.0,,,C,74685394464430
Raw,74685394,44164521000000,18,0.0,-1385524674896082491,-0.49471521377563477,115.73954543564469,10.596207728228096,12.1105902982608,11,11,0.0,16399,576839340873200,16,32.6,-263.6500549316406,1.19966721534729,16,0.0,0.0,1575420030,,,,0,0.0,1,-55.02,29.0,0.0,0.0,,,C,74685394633857
Raw,74685394,44164521000000,18,0.0,-1385524674896082491,-0.49471521377563477,115.73954543564469,10.596207728228096,12.1105902982608,11,14,0.0,16399,576839345907876,53,23.5,514.097412109375,0.9359999895095825,16,0.0,0.0,1575420030,,,,0,0.0,1,-55.02,19.9,0.0,0.0,,,C,74685394740836
Raw,74685395,44164521000000,18,0.0,-1385524674896082491,-0.49471521377563477,115.73954543564469,10.596207728228096,12.1105902982608,11,17,0.0,16399,576839345913515,14,33.8,-40.478759765625,0.04549565538764,16,0.0,0.0,1575420030,,,,0,0.0,1,-55.02,30.199999999999996,0.0,0.0,,,C,74685395113857
Raw,74685395,44164521000000,18,0.0,-1385524674896082491,-0.49471521377563477,115.73954543564469,10.596207728228096,12.1105902982608,11,20,0.0,16399,576839339616976,16,33.3,-608.1128540039062,0.05940523371100426,16,0.0,0.0,1575420030,,,,0,0.0,1,-55.02,29.699999999999996,0.0,0.0,,,C,74685395238648
Raw,74685395,44164521000000,18,0.0,-1385524674896082491,-0.49471521377563477,115.73954543564469,10.596207728228096,12.1105902982608,11,22,0.0,16399,576839348192697,35,26.4,200.1033172607422,0.7414999604225159,16,0.0,0.0,1575420030,,,,0,0.0,1,-55.02,22.799999999999997,0.0,0.0,,,C,74685395364742
Raw,74685395,44164521000000,18,0.0,-1385524674896082491,-0.49471521377563477,115.73954543564469,10.596207728228096,12.1105902982608,11,30,0.0,16399,576839332599825,53,23.1,380.6920166015625,0.9254999756813049,16,0.0,0.0,1575420030,,,,0,0.0,1,-55.02,19.5,0.0,0.0,,,C,74685395490680
Raw,74685395,44164521000000,18,0.0,-1385524674896082491,-0.49471521377563477,115.73954543564469,10.596207728228096,12.1105902982608,11,194,0.0,16399,576839296556733,24,28.7,-86.05326843261719,5.233431816101074,16,0.0,0.0,1575420030,,,,0,0.0,4,-55.02,25.099999999999998,0.0,0.0,,,C,74685395806773
Raw,74685395,44164521000000,18,0.0,-1385524674896082491,-0.49471521377563477,115.73954543564469,10.596207728228096,12.1105902982608,11,195,0.0,16399,576839284299346,13,35.5,-8.993399620056152,0.04589195176959038,16,0.0,0.0,1575420030,,,,0,0.0,4,-55.02,31.9,0.0,0.0,,,C,74685395926148
Raw,74685399,44164521000000,18,0.0,-1385524674896082491,-0.49471521377563477,115.73954543564469,10.596207728228096,12.1105902982608,11,196,0.0,16399,576839293689337,8,40.2,81.95231628417969,0.02870025485754013,16,0.0,0.0,1575420030,,,,0,0.0,4,-55.02,36.6,0.0,0.0,,,C,74685399788701
Raw,74685399,44164521000000,18,0.0,-1385524674896082491,-0.49471521377563477,115.73954543564469,10.596207728228096,12.1105902982608,11,14,0.0,49359,69221343109651,53,23.4,751.956298828125,0.9389999508857727,16,0.0,0.0,1598062460,,,,0,0.0,3,-55.66,19.4,3803.759521484375,22.178625106811523,,,C,74685399927190
Raw,74685400,44164521000000,18,0.0,-1385524674896082491,-0.49471521377563477,115.73954543564469,10.596207728228096,12.1105902982608,11,2,0.0,49359,69221346216271,27,28.7,-225.3760986328125,0.6345000267028809,16,0.0,0.0,1599750020,,,,0,0.0,3,-55.66,24.7,3803.759521484375,22.178625106811523,,,C,74685400057607
Raw,74685400,44164521000000,18,0.0,-1385524674896082491,-0.49471521377563477,115.73954543564469,10.596207728228096,12.1105902982608,11,18,0.0,49359,69221343490813,92,19.7,-125.12954711914062,2.701000213623047,16,0.0,0.0,1600312450,,,,0,0.0,3,-55.66,15.7,3803.759521484375,22.178625106811523,,,C,74685400170419
Raw,74685400,44164521000000,18,0.0,-1385524674896082491,-0.49471521377563477,115.73954543564469,10.596207728228096,12.1105902982608,11,16,0.0,49359,69221343125338,40,25.8,-413.7447509765625,0.8089999556541443,16,0.0,0.0,1601437440,,,,0,0.0,3,-55.66,21.8,3803.759521484375,22.178625106811523,,,C,74685400288388
Raw,74685400,44164521000000,18,0.0,-1385524674896082491,-0.49471521377563477,115.73954543564469,10.596207728228096,12.1105902982608,11,15,0.0,49359,69221349558742,24,29.6,264.5285949707031,1.2275605201721191,16,0.0,0.0,1602000000,,,,0,0.0,3,-55.66,25.6,3803.759521484375,22.178625106811523,,,C,74685400398388
Raw,74685400,44164521000000,18,0.0,-1385524674896082491,-0.49471521377563477,115.73954543564469,10.596207728228096,12.1105902982608,11,24,0.0,49359,69221338501509,40,25.9,292.96209716796875,0.7864999771118164,16,0.0,0.0,1603124990,,,,0,0.0,3,-55.66,21.9,3803.759521484375,22.178625106811523,,,C,74685400861982
Raw,74685401,44164521000000,18,0.0,-1385524674896082491,-0.49471521377563477,115.73954543564469,10.596207728228096,12.1105902982608,11,17,0.0,49359,69221345787067,40,25.6,105.0698471069336,0.8059999942779541,16,0.0,0.0,1604249980,,,,0,0.0,3,-55.66,21.6,3803.759521484375,22.178625106811523,,,C,74685401035107
Raw,74685401,44164521000000,18,0.0,-1385524674896082491,-0.49471521377563477,115.73954543564469,10.596207728228096,12.1105902982608,11,3,0.0,49359,69221342968362,9,39.4,-679.103271484375,0.045711953192949295,16,0.0,0.0,1604812540,,,,0,0.0,3,-55.66,35.4,3803.759521484375,22.178625106811523,,,C,74685401143180
Raw,74685401,44164521000000,18,0.0,-1385524674896082491,-0.49471521377563477,115.73954543564469,10.596207728228096,12.1105902982608,11,59,0.0,16399,576825293397707,7,41.4,-5.339272975921631,0.04094453901052475,16,0.0,0.0,1561097980,,,,0,0.0,5,-60.27,37.1,-1562.8651123046875,19.843599319458008,,,I,74685401341461
Raw,74685401,44164521000000,18,0.0,-1385524674896082491,-0.49471521377563477,115.73954543564469,10.596207728228096,12.1105902982608,11,46,0.0,16399,576825338302757,19,31.5,412.9809265136719,0.4964999854564667,16,0.0,0.0,1561097980,,,,0,0.0,5,-60.27,27.2,-1562.8651123046875,19.843599319458008,,,I,74685401474482
Raw,74685401,44164521000000,18,0.0,-1385524674896082491,-0.49471521377563477,115.73954543564469,10.596207728228096,12.1105902982608,11,41,0.0,16399,576825335508837,70,22.0,193.88307189941406,1.6040000915527344,16,0.0,0.0,1561097980,,,,0,0.0,5,-60.27,17.7,-1562.8651123046875,19.843599319458008,,,I,74685401595992
Raw,74685401,44164521000000,18,0.0,-1385524674896082491,-0.49471521377563477,115.73954543564469,10.596207728228096,12.1105902982608,11,40,0.0,16399,576825296610437,14,34.4,-96.12031555175781,0.605201244354248,16,0.0,0.0,1561097980,,,,0,0.0,5,-60.27,30.099999999999998,-1562.8651123046875,19.843599319458008,,,I,74685401705628
Raw,74685401,44164521000000,18,0.0,-1385524674896082491,-0.49471521377563477,115.73954543564469,10.596207728228096,12.1105902982608,11,36,0.0,16399,576825336698561,27,29.2,6.769392013549805,0.5795000195503235,16,0.0,0.0,1561097980,,,,0,0.0,5,-60.27,24.9,-1562.8651123046875,19.843599319458008,,,I,74685401827815
Raw,74685401,44164521000000,18,0.0,-1385524674896082491,-0.49471521377563477,115.73954543564469,10.596207728228096,12.1105902982608,11,32,0.0,16399,576825340291858,5,44.9,-341.4935302734375,0.0465342253446579,16,0.0,0.0,1561097980,,,,0,0.0,5,-60.27,40.6,-1562.8651123046875,19.843599319458008,,,I,74685401939951
Raw,74685402,44164521000000,18,0.0,-1385524674896082491,-0.49471521377563477,115.73954543564469,10.596207728228096,12.1105902982608,11,27,0.0,16399,576825339498119,8,41.0,124.62145233154297,0.049743376672267914,16,0.0,0.0,1561097980,,,,0,0.0,5,-60.27,36.7,-1562.8651123046875,19.843599319458008,,,I,74685402063180
Raw,74685402,44164521000000,18,0.0,-1385524674896082491,-0.49471521377563477,115.73954543564469,10.596207728228096,12.1105902982608,11,20,0.0,16399,576825331999673,35,26.3,-605.78857421875,0.7369999885559082,16,0.0,0.0,1561097980,,,,0,0.0,5,-60.27,22.0,-1562.8651123046875,19.843599319458008,,,I,74685402182294
Raw,74685402,44164521000000,18,0.0,-1385524674896082491,-0.49471521377563477,115.73954543564469,10.596207728228096,12.1105902982608,11,16,0.0,16399,576825280814523,61,22.8,131.1533660888672,1.0234999656677246,16,0.0,0.0,1561097980,,,,0,0.0,5,-60.27,18.5,-1562.8651123046875,19.843599319458008,,,I,74685402291565
Raw,74685402,44164521000000,18,0.0,-1385524674896082491,-0.49471521377563477,115.73954543564469,10.596207728228096,12.1105902982608,11,13,0.0,16399,576825294903947,61,23.2,-61.529449462890625,0.92249995470047,16,0.0,0.0,1561097980,,,,0,0.0,5,-60.27,18.9,-1562.8651123046875,19.843599319458008,,,I,74685402399638
Raw,74685402,44164521000000,18,0.0,-1385524674896082491,-0.49471521377563477,115.73954543564469,10.596207728228096,12.1105902982608,11,10,0.0,16399,576825296026017,61,22.6,-116.97126007080078,1.6054999828338623,16,0.0,0.0,1561097980,,,,0,0.0,5,-60.27,18.3,-1562.8651123046875,19.843599319458008,,,I,74685402509065
Raw,74685402,44164521000000,18,0.0,-1385524674896082491,-0.49471521377563477,115.73954543564469,10.596207728228096,12.1105902982608,11,7,0.0,16399,576825297049505,27,28.8,-65.93675994873047,0.6180000305175781,16,0.0,0.0,1561097980,,,,0,0.0,5,-60.27,24.5,-1562.8651123046875,19.843599319458008,,,I,74685402634482
Raw,74685402,44164521000000,18,0.0,-1385524674896082491,-0.49471521377563477,115.73954543564469,10.596207728228096,12.1105902982608,11,6,0.0,16399,576825281118485,31,27.5,152.95945739746094,0.6919999718666077,16,0.0,0.0,1561097980,,,,0,0.0,5,-60.27,23.2,-1562.8651123046875,19.843599319458008,,,I,74685402746721
Raw,74685402,44164521000000,18,0.0,-1385524674896082491,-0.49471521377563477,115.73954543564469,10.596207728228096,12.1105902982608,11,1,0.0,16399,576825293593566,16,34.2,-2.8805923461914062,1.5166000127792358,16,0.0,0.0,1561097980,,,,0,0.0,5,-60.27,29.900000000000002,-1562.8651123046875,19.843599319458008,,,I,74685402874169
Raw,74685403,44164521000000,18,0.0,-1385524674896082491,-0.49471521377563477,115.73954543564469,10.596207728228096,12.1105902982608,11,2,0.0,23567,576839338893894,40,25.5,153.99903869628906,0.8145443797111511,16,0.0,0.0,1575420030,,,,0,0.0,6,-58.76,21.2,-1465.2379150390625,20.80209732055664,,,C,74685403002607
Raw,74685403,44164521000000,18,0.0,-1385524674896082491,-0.49471521377563477,115.73954543564469,10.596207728228096,12.1105902982608,11,3,0.0,23567,576839321617741,70,21.9,-318.998779296875,1.1169999837875366,16,0.0,0.0,1575420030,,,,0,0.0,6,-58.76,17.599999999999998,-1465.2379150390625,20.80209732055664,,,C,74685403118909
Raw,74685403,44164521000000,18,0.0,-1385524674896082491,-0.49471521377563477,115.73954543564469,10.596207728228096,12.1105902982608,11,5,0.0,23567,576839331530846,9,39.6,-378.35772705078125,0.029309194535017014,16,0.0,0.0,1575420030,,,,0,0.0,6,-58.76,35.300000000000004,-1465.2379150390625,20.80209732055664,,,C,74685403227451
Raw,74685403,44164521000000,18,0.0,-1385524674896082491,-0.49471521377563477,115.73954543564469,10.596207728228096,12.1105902982608,11,25,0.0,23567,576839330673961,24,30.0,521.7036743164062,3.1448283195495605,16,0.0,0.0,1575420030,,,,0,0.0,6,-58.76,25.7,-1465.2379150390625,20.80209732055664,,,C,74685403345784
Raw,74685403,44164521000000,18,0.0,-1385524674896082491,-0.49471521377563477,115.73954543564469,10.596207728228096,12.1105902982608,11,30,0.0,23567,576839331904201,92,19.7,-341.5200500488281,2.0440001487731934,16,0.0,0.0,1575420030,,,,0,0.0,6,-58.76,15.399999999999999,-1465.2379150390625,20.80209732055664,,,C,74685403483232
Raw,74685403,44164521000000,18,0.0,-1385524674896082491,-0.49471521377563477,115.73954543564469,10.596207728228096,12.1105902982608,11,34,0.0,23567,576839335589925,35,26.3,24.330656051635742,1.5980204343795776,16,0.0,0.0,1575420030,,,,0,0.0,6,-58.76,22.0,-1465.2379150390625,20.80209732055664,,,C,74685403591357
Raw,74685403,44164521000000,18,0.0,-1385524674896082491,-0.49471521377563477,115.73954543564469,10.596207728228096,12.1105902982608,11,20,0.0,16399,576825331999701,9,28.5,-605.8419189453125,1.2413222789764404,16,0.0,0.0,1575420030,,,,0,0.0,5,-58.76,21.5,-1578.30419921875,241.71229553222656,,,P,74685403692138
Raw,74685403,44164521000000,18,0.0,-1385524674896082491,-0.49471521377563477,115.73954543564469,10.596207728228096,12.1105902982608,11,27,0.0,16399,576825339498123,3,40.4,124.7588119506836,0.08169834315776825,16,0.0,0.0,1575420030,,,,0,0.0,5,-58.76,33.4,-1578.30419921875,241.71229553222656,,,P,74685403800055
Raw,74685403,44164521000000,18,0.0,-1385524674896082491,-0.49471521377563477,115.73954543564469,10.596207728228096,12.1105902982608,11,30,0.0,16399,576825339562777,11,26.2,-154.38290405273438,3.5998668670654297,16,0.0,0.0,1575420030,,,,0,0.0,5,-58.76,19.2,-1578.30419921875,241.71229553222656,,,P,74685403910159
Raw,74685404,44164521000000,18,0.0,-1385524674896082491,-0.49471521377563477,115.73954543564469,10.596207728228096,12.1105902982608,11,32,0.0,16399,576825340291868,2,47.9,-341.3549499511719,0.07950664311647415,16,0.0,0.0,1575420030,,,,0,0.0,5,-58.76,40.9,-1578.30419921875,241.71229553222656,,,P,74685404338857
Raw,74685404,44164521000000,18,0.0,-1385524674896082491,-0.49471521377563477,115.73954543564469,10.596207728228096,12.1105902982608,11,36,0.0,16399,576825336698564,6,32.8,6.091364860534668,0.11389181762933731,16,0.0,0.0,1575420030,,,,0,0.0,5,-58.76,25.799999999999997,-1578.30419921875,241.71229553222656,,,P,74685404497867
Raw,74685409,44164521000000,18,0.0,-1385524674896082491,-0.49471521377563477,115.73954543564469,10.596207728228096,12.1105902982608,11,40,0.0,16399,576825296610359,6,32.7,-96.03515625,1.237652063369751,16,0.0,0.0,1575420030,,,,0,0.0,5,-58.76,25.700000000000003,-1578.30419921875,241.71229553222656,,,P,74685409879898
Raw,74685409,44164521000000,18,0.0,-1385524674896082491,-0.49471521377563477,115.73954543564469,10.596207728228096,12.1105902982608,11,46,0.0,16399,576825338303795,8,30.4,413.3470153808594,0.6725873947143555,16,0.0,0.0,1575420030,,,,0,0.0,5,-58.76,23.4,-1578.30419921875,241.71229553222656,,,P,74685409998284
Raw,74686412,44165521000000,18,0.0,-1385524674896082484,-0.11864042282104492,101.69271990889683,2.081483737314212,13.652510986475747,11,9,0.0,16399,576840337299551,7,41.0,-338.8940734863281,0.022205490618944168,16,0.0,0.0,1575420030,,,,0,0.0,1,-55.2,37.4,0.0,0.0,,,C,74686412220315
Raw,74686412,44165521000000,18,0.0,-1385524674896082484,-0.11864042282104492,101.69271990889683,2.081483737314212,13.652510986475747,11,11,0.0,16399,576840340874051,13,35.0,-264.22857666015625,0.05189195275306702,16,0.0,0.0,1575420030,,,,0,0.0,1,-55.2,31.4,0.0,0.0,,,C,74686412553179
Raw,74686412,44165521000000,18,0.0,-1385524674896082484,-0.11864042282104492,101.69271990889683,2.081483737314212,13.652510986475747,11,17,0.0,16399,576840345913753,16,32.6,-41.04679870605469,0.05040523409843445,16,0.0,0.0,1575420030,,,,0,0.0,1,-55.2,29.0,0.0,0.0,,,C,74686412704950
Raw,74686412,44165521000000,18,0.0,-1385524674896082484,-0.11864042282104492,101.69271990889683,2.081483737314212,13.652510986475747,11,19,0.0,16399,576840347070449,46,24.4,-225.46945190429688,2.296999931335449,16,0.0,0.0,1575420030,,,,0,0.0,1,-55.2,20.799999999999997,0.0,0.0,,,C,74686412850523
Raw,74686414,44165521000000,18,0.0,-1385524674896082484,-0.11864042282104492,101.69271990889683,2.081483737314212,13.652510986475747,11,20,0.0,16399,576840339619038,17,31.9,-608.6761474609375,0.06079437583684921,16,0.0,0.0,1575420030,,,,0,0.0,1,-55.2,28.299999999999997,0.0,0.0,,,C,74686414010367
Raw,74686416,44165521000000,18,0.0,-1385524674896082484,-0.11864042282104492,101.69271990889683,2.081483737314212,13.652510986475747,11,194,0.0,16399,576840296556601,21,30.0,-86.84419250488281,6.914163112640381,16,0.0,0.0,1575420030,,,,0,0.0,4,-55.2,26.4,0.0,0.0,,,C,74686416419429
Raw,74686416,44165521000000,18,0.0,-1385524674896082484,-0.11864042282104492,101.69271990889683,2.081483737314212,13.652510986475747,11,195,0.0,16399,576840284299372,12,36.4,-9.63123607635498,0.044997572898864746,16,0.0,0.0,1575420030,,,,0,0.0,4,-55.2,32.8,0.0,0.0,,,C,74686416547346
Raw,74686419,44165521000000,18,0.0,-1385524674896082484,-0.11864042282104492,101.69271990889683,2.081483737314212,13.652510986475747,11,196,0.0,16399,576840293689067,6,42.8,81.35834503173828,0.027292080223560333,16,0.0,0.0,1575420030,,,,0,0.0,4,-55.2,39.199999999999996,0.0,0.0,,,C,74686419034638
Raw,74686419,44165521000000,18,0.0,-1385524674896082484,-0.11864042282104492,101.69271990889683,2.081483737314212,13.652510986475747,11,14,0.0,49359,69222343107102,35,26.9,750.577392578125,0.7489999532699585,16,0.0,0.0,1598062460,,,,0,0.0,3,-55.82,22.9,3803.759521484375,22.178625106811523,,,C,74686419162815
Raw,74686419,44165521000000,18,0.0,-1385524674896082484,-0.11864042282104492,101.69271990889683,2.081483737314212,13.652510986475747,11,2,0.0,49359,69222346216879,27,28.8,-225.1137237548828,0.6345000267028809,16,0.0,0.0,1599750020,,,,0,0.0,3,-55.82,24.8,3803.759521484375,22.178625106811523,,,C,74686419274533
Raw,74686419,44165521000000,18,0.0,-1385524674896082484,-0.11864042282104492,101.69271990889683,2.081483737314212,13.652510986475747,11,15,0.0,49359,69222349557910,14,34.3,264.0183410644531,0.03933810442686081,16,0.0,0.0,1602000000,,,,0,0.0,3,-55.82,30.299999999999997,3803.759521484375,22.178625106811523,,,C,74686419411252
Raw,74686419,44165521000000,18,0.0,-1385524674896082484,-0.11864042282104492,101.69271990889683,2.081483737314212,13.652510986475747,11,17,0.0,49359,69222345786180,53,23.7,104.1167984008789,0.9359999895095825,16,0.0,0.0,1604249980,,,,0,0.0,3,-55.82,19.7,3803.759521484375,22.178625106811523,,,C,74686419553440
Raw,74686419,44165521000000,18,0.0,-1385524674896082484,-0.11864042282104492,101.69271990889683,2.081483737314212,13.652510986475747,11,3,0.0,49359,69222342970722,13,35.8,-679.8159790039062,0.048738252371549606,16,0.0,0.0,1604812540,,,,0,0.0,3,-55.82,31.799999999999997,3803.759521484375,22.178625106811523,,,C,74686419810211
Raw,74686420,44165521000000,18,0.0,-1385524674896082484,-0.11864042282104492,101.69271990889683,2.081483737314212,13.652510986475747,11,59,0.0,16399,576826293397711,5,44.9,-5.931312084197998,0.024582769721746445,16,0.0,0.0,1561097980,,,,0,0.0,5,-60.3,40.6,-1562.8651123046875,19.843599319458008,,,I,74686420032033
Raw,74686420,44165521000000,18,0.0,-1385524674896082484,-0.11864042282104492,101.69271990889683,2.081483737314212,13.652510986475747,11,46,0.0,16399,576826338301358,16,34.1,412.59112548828125,0.6071558594703674,16,0.0,0.0,1561097980,,,,0,0.0,5,-60.3,29.8,-1562.8651123046875,19.843599319458008,,,I,74686420190471
Raw,74686420,44165521000000,18,0.0,-1385524674896082484,-0.11864042282104492,101.69271990889683,2.081483737314212,13.652510986475747,11,40,0.0,16399,576826296610758,17,32.9,-96.72716522216797,0.035439275205135345,16,0.0,0.0,1561097980,,,,0,0.0,5,-60.3,28.599999999999998,-1562.8651123046875,19.843599319458008,,,I,74686420304065
Raw,74686420,44165521000000,18,0.0,-1385524674896082484,-0.11864042282104492,101.69271990889683,2.081483737314212,13.652510986475747,11,36,0.0,16399,576826336698492,46,24.3,5.703573226928711,0.8495000004768372,16,0.0,0.0,1561097980,,,,0,0.0,5,-60.3,20.0,-1562.8651123046875,19.843599319458008,,,I,74686420420940
Raw,74686420,44165521000000,18,0.0,-1385524674896082484,-0.11864042282104492,101.69271990889683,2.081483737314212,13.652510986475747,11,32,0.0,16399,576826340293048,5,45.7,-342.0137634277344,0.04622696340084076,16,0.0,0.0,1561097980,,,,0,0.0,5,-60.3,41.400000000000006,-1562.8651123046875,19.843599319458008,,,I,74686420538961
Raw,74686420,44165521000000,18,0.0,-1385524674896082484,-0.11864042282104492,101.69271990889683,2.081483737314212,13.652510986475747,11,27,0.0,16399,576826339497701,12,36.9,124.0196762084961,0.05256635695695877,16,0.0,0.0,1561097980,,,,0,0.0,5,-60.3,32.6,-1562.8651123046875,19.843599319458008,,,I,74686420702502
Raw,74686420,44165521000000,18,0.0,-1385524674896082484,-0.11864042282104492,101.69271990889683,2.081483737314212,13.652510986475747,11,20,0.0,16399,576826332001645,61,22.3,-606.3839111328125,1.005500078201294,16,0.0,0.0,1561097980,,,,0,0.0,5,-60.3,18.0,-1562.8651123046875,19.843599319458008,,,I,74686420835263
Raw,74686420,44165521000000,18,0.0,-1385524674896082484,-0.11864042282104492,101.69271990889683,2.081483737314212,13.652510986475747,11,8,0.0,16399,576826296359154,70,22.0,-41.32689666748047,2.3555002212524414,16,0.0,0.0,1561097980,,,,0,0.0,5,-60.3,17.7,-1562.8651123046875,19.843599319458008,,,I,74686420952242
Raw,74686421,44165521000000,18,0.0,-1385524674896082484,-0.11864042282104492,101.69271990889683,2.081483737314212,13.652510986475747,11,7,0.0,16399,576826297049788,40,26.2,-66.09038543701172,0.7279999852180481,16,0.0,0.0,1561097980,,,,0,0.0,5,-60.3,21.9,-1562.8651123046875,19.843599319458008,,,I,74686421068179
Raw,74686421,44165521000000,18,0.0,-1385524674896082484,-0.11864042282104492,101.69271990889683,2.081483737314212,13.652510986475747,11,6,0.0,16399,576826281117975,53,23.3,153.6219940185547,0.9419999718666077,16,0.0,0.0,1561097980,,,,0,0.0,5,-60.3,19.0,-1562.8651123046875,19.843599319458008,,,I,74686421182138
Raw,74686421,44165521000000,18,0.0,-1385524674896082484,-0.11864042282104492,101.69271990889683,2.081483737314212,13.652510986475747,11,1,0.0,16399,576826293593572,10,39.0,-6.60615873336792,1.0597999095916748,16,0.0,0.0,1561097980,,,,0,0.0,5,-60.3,34.7,-1562.8651123046875,19.843599319458008,,,I,74686421565471
Raw,74686421,44165521000000,18,0.0,-1385524674896082484,-0.11864042282104492,101.69271990889683,2.081483737314212,13.652510986475747,11,2,0.0,23567,576840338893361,21,31.1,153.4391632080078,0.0476054847240448,16,0.0,0.0,1575420030,,,,0,0.0,6,-58.87,26.8,-1465.2379150390625,20.80209732055664,,,C,74686421708648
Raw,74686421,44165521000000,18,0.0,-1385524674896082484,-0.11864042282104492,101.69271990889683,2.081483737314212,13.652510986475747,11,5,0.0,23567,576840331532126,7,41.9,-378.9560546875,0.028205489739775658,16,0.0,0.0,1575420030,,,,0,0.0,6,-58.87,37.6,-1465.2379150390625,20.80209732055664,,,C,74686421826773
Raw,74686421,44165521000000,18,0.0,-1385524674896082484,-0.11864042282104492,101.69271990889683,2.081483737314212,13.652510986475747,11,25,0.0,23567,576840330672228,35,27.0,521.1266479492188,0.07355223596096039,16,0.0,0.0,1575420030,,,,0,0.0,6,-58.87,22.7,-1465.2379150390625,20.80209732055664,,,C,74686421945158
Raw,74686422,44165521000000,18,0.0,-1385524674896082484,-0.11864042282104492,101.69271990889683,2.081483737314212,13.652510986475747,11,30,0.0,23567,576840331905723,46,24.8,-343.166259765625,1.5972115993499756,16,0.0,0.0,1575420030,,,,0,0.0,6,-58.87,20.5,-1465.2379150390625,20.80209732055664,,,C,74686422238544
Raw,74686422,44165521000000,18,0.0,-1385524674896082484,-0.11864042282104492,101.69271990889683,2.081483737314212,13.652510986475747,11,34,0.0,23567,576840335589798,31,27.9,23.78961753845215,0.8316904902458191,16,0.0,0.0,1575420030,,,,0,0.0,6,-58.87,23.599999999999998,-1465.2379150390625,20.80209732055664,,,C,74686422354638
Raw,74686422,44165521000000,18,0.0,-1385524674896082484,-0.11864042282104492,101.69271990889683,2.081483737314212,13.652510986475747,11,20,0.0,16399,576826332001818,11,26.9,-606.4445190429688,0.7499616742134094,16,0.0,0.0,1575420030,,,,0,0.0,5,-58.87,19.9,-1578.432373046875,214.41470336914062,,,P,74686422463075
Raw,74686422,44165521000000,18,0.0,-1385524674896082484,-0.11864042282104492,101.69271990889683,2.081483737314212,13.652510986475747,11,27,0.0,16399,576826339497725,5,35.7,124.04318237304688,0.08740714937448502,16,0.0,0.0,1575420030,,,,0,0.0,5,-58.87,28.700000000000003,-1578.432373046875,214.41470336914062,,,P,74686422695315
